{"type": "FeatureCollection",
 "bbox": [ 15.77276293, 44.99840203, 16.95472983, 45.49251409],
 "features": [
  {"geometry":{"coordinates":[16.791744,45.321425],"type":"Point"},"id":"naselja_stanovnistvo.1","properties":{"code":1003,"fclass":"village","geostat__1":"293","id":1,"name":"Puska","osm_id":"286801618","population":293,"promet_dos":null,"smještaj":null,"stanovni_g":293,"tip":"selo","tipo_struk":null,"visina1":96.43925476074219,"xcoord":522871.8032814302,"ycoord":5020205.246803147},"type":"Feature"}
 ,{"geometry":{"coordinates":[16.82829,45.26682],"type":"Point"},"id":"naselja_stanovnistvo.2","properties":{"code":1003,"fclass":"village","geostat__1":"82","id":2,"name":"Drenov Bok","osm_id":"286820072","population":82,"promet_dos":null,"smještaj":null,"stanovni_g":82,"tip":"selo","tipo_struk":null,"visina1":93.95794677734375,"xcoord":525761.6544870688,"ycoord":5014148.213488146},"type":"Feature"}
 ,{"geometry":{"coordinates":[16.952882,45.261542],"type":"Point"},"id":"naselja_stanovnistvo.3","properties":{"code":1003,"fclass":"village","geostat__1":"264","id":3,"name":"Košutarica","osm_id":"286830237","population":264,"promet_dos":null,"smještaj":null,"stanovni_g":264,"tip":"selo","tipo_struk":null,"visina1":92.83551788330078,"xcoord":535541.9519233797,"ycoord":5013609.039900336},"type":"Feature"}
 ,{"geometry":{"coordinates":[16.140686,45.386302],"type":"Point"},"id":"naselja_stanovnistvo.4","properties":{"code":1003,"fclass":"village","geostat__1":"93","id":4,"name":"Marinbrod","osm_id":"357231137","population":93,"promet_dos":null,"smještaj":null,"stanovni_g":93,"tip":"selo","tipo_struk":null,"visina1":105.45698547363281,"xcoord":471863.0859249331,"ycoord":5027436.225669492},"type":"Feature"}
 ,{"geometry":{"coordinates":[16.132266,45.3724],"type":"Point"},"id":"naselja_stanovnistvo.5","properties":{"code":1003,"fclass":"village","geostat__1":"50","id":5,"name":"Kihalac","osm_id":"357231141","population":50,"promet_dos":null,"smještaj":null,"stanovni_g":50,"tip":"selo","tipo_struk":null,"visina1":107.65348052978516,"xcoord":471196.6412025347,"ycoord":5025894.323912661},"type":"Feature"}
 ,{"geometry":{"coordinates":[16.121965,45.366827],"type":"Point"},"id":"naselja_stanovnistvo.6","properties":{"code":1003,"fclass":"village","geostat__1":"143","id":6,"name":"Prekopa","osm_id":"357231144","population":143,"promet_dos":null,"smještaj":null,"stanovni_g":143,"tip":"selo","tipo_struk":null,"visina1":109.00508117675781,"xcoord":470386.89914854494,"ycoord":5025278.745425929},"type":"Feature"}
 ,{"geometry":{"coordinates":[15.975037,45.334628],"type":"Point"},"id":"naselja_stanovnistvo.7","properties":{"code":1003,"fclass":"village","geostat__1":"50","id":7,"name":"Batinova Kosa","osm_id":"357231152","population":50,"promet_dos":null,"smještaj":null,"stanovni_g":50,"tip":"selo","tipo_struk":null,"visina1":132.54254150390625,"xcoord":458854.1287351944,"ycoord":5021765.150092145},"type":"Feature"}
 ,{"geometry":{"coordinates":[15.86495,45.354984],"type":"Point"},"id":"naselja_stanovnistvo.8","properties":{"code":1003,"fclass":"village","geostat__1":null,"id":8,"name":"Vrginmost","osm_id":"357233506","population":1095,"promet_dos":null,"smještaj":null,"stanovni_g":1095,"tip":"grad/gradsko naselje","tipo_struk":null,"visina1":133.64999389648438,"xcoord":450243.4224485809,"ycoord":5024089.305667655},"type":"Feature"}
 ,{"geometry":{"coordinates":[15.821863,45.351718],"type":"Point"},"id":"naselja_stanovnistvo.9","properties":{"code":1003,"fclass":"village","geostat__1":"161","id":9,"name":"Crevarska Strana","osm_id":"357233508","population":161,"promet_dos":null,"smještaj":null,"stanovni_g":161,"tip":"selo","tipo_struk":null,"visina1":179.39175415039063,"xcoord":446864.50752534426,"ycoord":5023753.95556755},"type":"Feature"}
 ,{"geometry":{"coordinates":[15.786787,45.36625],"type":"Point"},"id":"naselja_stanovnistvo.10","properties":{"code":1003,"fclass":"village","geostat__1":"338","id":10,"name":"Slavsko Polje","osm_id":"357233511","population":338,"promet_dos":null,"smještaj":null,"stanovni_g":338,"tip":"selo","tipo_struk":null,"visina1":184.08811950683594,"xcoord":444130.460783123,"ycoord":5025392.60333861},"type":"Feature"}
 ,{"geometry":{"coordinates":[15.974874,45.278775],"type":"Point"},"id":"naselja_stanovnistvo.11","properties":{"code":1003,"fclass":"village","geostat__1":"150","id":11,"name":"Velika Vranovina","osm_id":"463259599","population":150,"promet_dos":null,"smještaj":null,"stanovni_g":150,"tip":"selo","tipo_struk":null,"visina1":132.7983856201172,"xcoord":458800.8733882306,"ycoord":5015558.467672769},"type":"Feature"}
 ,{"geometry":{"coordinates":[15.999949,45.297364],"type":"Point"},"id":"naselja_stanovnistvo.12","properties":{"code":1003,"fclass":"village","geostat__1":"310","id":12,"name":"Hrvatsko Selo","osm_id":"463259601","population":310,"promet_dos":null,"smještaj":null,"stanovni_g":310,"tip":"selo","tipo_struk":null,"visina1":162.4947967529297,"xcoord":460780.9308989277,"ycoord":5017611.721421682},"type":"Feature"}
 ,{"geometry":{"coordinates":[15.954435,45.286804],"type":"Point"},"id":"naselja_stanovnistvo.13","properties":{"code":1003,"fclass":"village","geostat__1":"347","id":13,"name":"Ponikvari","osm_id":"463259603","population":347,"promet_dos":null,"smještaj":null,"stanovni_g":347,"tip":"selo","tipo_struk":null,"visina1":170.2703094482422,"xcoord":457203.32340481837,"ycoord":5016461.32374321},"type":"Feature"}
 ,{"geometry":{"coordinates":[15.974467,45.314411],"type":"Point"},"id":"naselja_stanovnistvo.14","properties":{"code":1003,"fclass":"village","geostat__1":"341","id":14,"name":"Gređani","osm_id":"463259605","population":341,"promet_dos":null,"smještaj":null,"stanovni_g":341,"tip":"selo","tipo_struk":null,"visina1":181.93800354003906,"xcoord":458794.72796542634,"ycoord":5019518.732528731},"type":"Feature"}
 ,{"geometry":{"coordinates":[15.970704,45.294301],"type":"Point"},"id":"naselja_stanovnistvo.15","properties":{"code":1003,"fclass":"village","geostat__1":"945","id":15,"name":"Topusko","osm_id":"481367471","population":945,"promet_dos":null,"smještaj":null,"stanovni_g":945,"tip":"grad/gradsko naselje","tipo_struk":null,"visina1":121.99093627929688,"xcoord":458485.01656306343,"ycoord":5017285.95263379},"type":"Feature"}
 ,{"geometry":{"coordinates":[16.548249,45.223296],"type":"Point"},"id":"naselja_stanovnistvo.16","properties":{"code":1002,"fclass":"town","geostat__1":null,"id":16,"name":"HRVATSKA KOSTAJNICA","osm_id":"556741405","population":2127,"promet_dos":null,"smještaj":null,"stanovni_g":2127,"tip":"grad/gradsko naselje","tipo_struk":null,"visina1":122.32332611083984,"xcoord":503789.12005279755,"ycoord":5009260.325169237},"type":"Feature"}
 ,{"geometry":{"coordinates":[16.910544,45.272192],"type":"Point"},"id":"naselja_stanovnistvo.17","properties":{"code":1003,"fclass":"village","geostat__1":"653","id":17,"name":"Jasenovac","osm_id":"614883190","population":653,"promet_dos":null,"smještaj":null,"stanovni_g":653,"tip":"selo","tipo_struk":null,"visina1":92.12862396240234,"xcoord":532213.2573716171,"ycoord":5014774.757504121},"type":"Feature"}
 ,{"geometry":{"coordinates":[15.85852,45.31643],"type":"Point"},"id":"naselja_stanovnistvo.18","properties":{"code":1003,"fclass":"village","geostat__1":"171","id":18,"name":"Blatuša","osm_id":"709215959","population":0,"promet_dos":null,"smještaj":null,"stanovni_g":171,"tip":"selo","tipo_struk":null,"visina1":195.9907684326172,"xcoord":449705.56550221227,"ycoord":5019808.935368995},"type":"Feature"}
 ,{"geometry":{"coordinates":[16.012305,45.477271],"type":"Point"},"id":"naselja_stanovnistvo.19","properties":{"code":1003,"fclass":"village","geostat__1":"88","id":19,"name":"Slatina Pokupska","osm_id":"771698073","population":88,"promet_dos":null,"smještaj":null,"stanovni_g":88,"tip":"selo","tipo_struk":null,"visina1":126.85598754882813,"xcoord":461871.20519136544,"ycoord":5037598.422130221},"type":"Feature"}
 ,{"geometry":{"coordinates":[16.002283,45.4535],"type":"Point"},"id":"naselja_stanovnistvo.20","properties":{"code":1003,"fclass":"village","geostat__1":"40","id":20,"name":"Donje Taborište","osm_id":"771698414","population":40,"promet_dos":null,"smještaj":null,"stanovni_g":40,"tip":"selo","tipo_struk":null,"visina1":123.51925659179688,"xcoord":461071.3265408519,"ycoord":5034961.595400422},"type":"Feature"}
 ,{"geometry":{"coordinates":[16.909755,45.262952],"type":"Point"},"id":"naselja_stanovnistvo.21","properties":{"code":1003,"fclass":"village","geostat__1":"177","id":21,"name":"Uštica","osm_id":"793177273","population":177,"promet_dos":null,"smještaj":null,"stanovni_g":177,"tip":"selo","tipo_struk":null,"visina1":94.56768798828125,"xcoord":532156.5578037814,"ycoord":5013747.595106907},"type":"Feature"}
 ,{"geometry":{"coordinates":[16.378503,45.069601],"type":"Point"},"id":"naselja_stanovnistvo.22","properties":{"code":1003,"fclass":"village","geostat__1":"1.406","id":22,"name":"Dvor","osm_id":"912037241","population":1406,"promet_dos":null,"smještaj":null,"stanovni_g":1406,"tip":"grad/gradsko naselje","tipo_struk":null,"visina1":125.49271392822266,"xcoord":490432.8921288181,"ycoord":4992187.16589886},"type":"Feature"}
 ,{"geometry":{"coordinates":[16.421312,45.287207],"type":"Point"},"id":"naselja_stanovnistvo.23","properties":{"code":1003,"fclass":"village","geostat__1":null,"id":23,"name":"Mečenćani","osm_id":"915076613","population":0,"promet_dos":null,"smještaj":null,"stanovni_g":148,"tip":"selo","tipo_struk":null,"visina1":183.33969116210938,"xcoord":493827.4153149595,"ycoord":5016364.300750218},"type":"Feature"}
 ,{"geometry":{"coordinates":[16.483644,45.265056],"type":"Point"},"id":"naselja_stanovnistvo.24","properties":{"code":1003,"fclass":"village","geostat__1":"297","id":24,"name":"Donji Kukuruzari","osm_id":"915076653","population":297,"promet_dos":null,"smještaj":null,"stanovni_g":297,"tip":"selo","tipo_struk":null,"visina1":151.82669067382813,"xcoord":498716.5006636698,"ycoord":5013899.909857845},"type":"Feature"}
 ,{"geometry":{"coordinates":[16.568214,45.368386],"type":"Point"},"id":"naselja_stanovnistvo.25","properties":{"code":1003,"fclass":"village","geostat__1":"1.412","id":25,"name":"Sunja","osm_id":"918941232","population":1412,"promet_dos":null,"smještaj":null,"stanovni_g":1412,"tip":"selo","tipo_struk":null,"visina1":101.34873962402344,"xcoord":505343.3783403282,"ycoord":5025384.769947368},"type":"Feature"}
 ,{"geometry":{"coordinates":[16.565795,45.375308],"type":"Point"},"id":"naselja_stanovnistvo.26","properties":{"code":1003,"fclass":"village","geostat__1":"366","id":26,"name":"Greda Sunjska","osm_id":"921629277","population":366,"promet_dos":null,"smještaj":null,"stanovni_g":366,"tip":"selo","tipo_struk":null,"visina1":100.9643325805664,"xcoord":505153.2407979865,"ycoord":5026153.839761194},"type":"Feature"}
 ,{"geometry":{"coordinates":[16.367175,45.356001],"type":"Point"},"id":"naselja_stanovnistvo.27","properties":{"code":1003,"fclass":"village","geostat__1":"78","id":27,"name":"Blinja","osm_id":"938553694","population":78,"promet_dos":null,"smještaj":"udolinsko","stanovni_g":78,"tip":"selo","tipo_struk":"zbijeno (slabo) nepravilno s odvojcima","visina1":184.2080078125,"xcoord":489593.2664187482,"ycoord":5024014.816121006},"type":"Feature"}
 ,{"geometry":{"coordinates":[16.540536,45.398083],"type":"Point"},"id":"naselja_stanovnistvo.28","properties":{"code":1003,"fclass":"village","geostat__1":"89","id":28,"name":"Gradusa Posavska","osm_id":"1024842186","population":89,"promet_dos":null,"smještaj":null,"stanovni_g":89,"tip":"selo","tipo_struk":null,"visina1":95.53936767578125,"xcoord":503173.6087307587,"ycoord":5028683.433982223},"type":"Feature"}
 ,{"geometry":{"coordinates":[16.282857,45.128705],"type":"Point"},"id":"naselja_stanovnistvo.29","properties":{"code":1003,"fclass":"village","geostat__1":"87","id":29,"name":"Donja Stupnica","osm_id":"1516891213","population":87,"promet_dos":null,"smještaj":null,"stanovni_g":87,"tip":"selo","tipo_struk":null,"visina1":167.81146240234375,"xcoord":482919.0516589183,"ycoord":4998770.768822986},"type":"Feature"}
 ,{"geometry":{"coordinates":[16.352858,45.149883],"type":"Point"},"id":"naselja_stanovnistvo.30","properties":{"code":1003,"fclass":"village","geostat__1":"67","id":30,"name":"Paukovac","osm_id":"1516891217","population":67,"promet_dos":null,"smještaj":null,"stanovni_g":67,"tip":"selo","tipo_struk":null,"visina1":176.70816040039063,"xcoord":488429.78726596176,"ycoord":5001111.767545283},"type":"Feature"}
 ,{"geometry":{"coordinates":[16.276906,45.150293],"type":"Point"},"id":"naselja_stanovnistvo.31","properties":{"code":1003,"fclass":"village","geostat__1":"61","id":31,"name":"Gornja Stupnica","osm_id":"1516984918","population":61,"promet_dos":null,"smještaj":null,"stanovni_g":61,"tip":"selo","tipo_struk":null,"visina1":193.16297912597656,"xcoord":482457.5771242114,"ycoord":5001170.930527542},"type":"Feature"}
 ,{"geometry":{"coordinates":[16.363573,45.089657],"type":"Point"},"id":"naselja_stanovnistvo.32","properties":{"code":1003,"fclass":"village","geostat__1":"112","id":32,"name":"Hrtić","osm_id":"1516984927","population":112,"promet_dos":null,"smještaj":null,"stanovni_g":112,"tip":"selo","tipo_struk":null,"visina1":206.50924682617188,"xcoord":489261.0654063497,"ycoord":4994417.806441127},"type":"Feature"}
 ,{"geometry":{"coordinates":[16.338498,45.082477],"type":"Point"},"id":"naselja_stanovnistvo.33","properties":{"code":1003,"fclass":"village","geostat__1":"81","id":33,"name":"Vanići","osm_id":"1516984933","population":81,"promet_dos":null,"smještaj":null,"stanovni_g":81,"tip":"selo","tipo_struk":null,"visina1":140.06756591796875,"xcoord":487285.6635350472,"ycoord":4993623.482355379},"type":"Feature"}
 ,{"geometry":{"coordinates":[16.32786,45.110875],"type":"Point"},"id":"naselja_stanovnistvo.34","properties":{"code":1003,"fclass":"village","geostat__1":"65","id":34,"name":"Bansko Vrpolje","osm_id":"1516984937","population":65,"promet_dos":null,"smještaj":null,"stanovni_g":65,"tip":"selo","tipo_struk":null,"visina1":194.13372802734375,"xcoord":486454.87857539114,"ycoord":4996780.92288536},"type":"Feature"}
 ,{"geometry":{"coordinates":[16.38921,45.156754],"type":"Point"},"id":"naselja_stanovnistvo.35","properties":{"code":1003,"fclass":"village","geostat__1":"35","id":35,"name":"Šegestin","osm_id":"1516984941","population":35,"promet_dos":null,"smještaj":null,"stanovni_g":35,"tip":"selo","tipo_struk":null,"visina1":242.15451049804688,"xcoord":491289.2899063425,"ycoord":5001870.736765586},"type":"Feature"}
 ,{"geometry":{"coordinates":[16.414898,45.177263],"type":"Point"},"id":"naselja_stanovnistvo.36","properties":{"code":1003,"fclass":"village","geostat__1":null,"id":36,"name":"Bujinja","osm_id":"1517018104","population":0,"promet_dos":null,"smještaj":null,"stanovni_g":10,"tip":"selo","tipo_struk":null,"visina1":230.20086669921875,"xcoord":493311.3363665708,"ycoord":5004147.318281779},"type":"Feature"}
 ,{"geometry":{"coordinates":[16.333858,45.157819],"type":"Point"},"id":"naselja_stanovnistvo.37","properties":{"code":1003,"fclass":"village","geostat__1":"109","id":37,"name":"Gorička","osm_id":"1517033894","population":109,"promet_dos":null,"smještaj":null,"stanovni_g":109,"tip":"selo","tipo_struk":null,"visina1":345.37237548828125,"xcoord":486937.56299631234,"ycoord":5001996.55187371},"type":"Feature"}
 ,{"geometry":{"coordinates":[16.297536,45.140613],"type":"Point"},"id":"naselja_stanovnistvo.38","properties":{"code":1003,"fclass":"village","geostat__1":"59","id":38,"name":"Pedalj","osm_id":"1517033895","population":59,"promet_dos":null,"smještaj":null,"stanovni_g":59,"tip":"selo","tipo_struk":null,"visina1":218.3888702392578,"xcoord":484077.00949215074,"ycoord":5000090.984159031},"type":"Feature"}
 ,{"geometry":{"coordinates":[16.357694,45.112772],"type":"Point"},"id":"naselja_stanovnistvo.39","properties":{"code":1003,"fclass":"village","geostat__1":"149","id":39,"name":"Donji Javoranj","osm_id":"1517076589","population":149,"promet_dos":null,"smještaj":null,"stanovni_g":149,"tip":"selo","tipo_struk":null,"visina1":139.1488800048828,"xcoord":488802.766478088,"ycoord":4996987.203574753},"type":"Feature"}
 ,{"geometry":{"coordinates":[16.349359,45.124396],"type":"Point"},"id":"naselja_stanovnistvo.40","properties":{"code":1003,"fclass":"village","geostat__1":"65","id":40,"name":"Gornji Javoranj","osm_id":"1517076591","population":65,"promet_dos":null,"smještaj":null,"stanovni_g":65,"tip":"selo","tipo_struk":null,"visina1":161.7336883544922,"xcoord":488149.3719505276,"ycoord":4998280.062685893},"type":"Feature"}
 ,{"geometry":{"coordinates":[16.383943,45.089143],"type":"Point"},"id":"naselja_stanovnistvo.41","properties":{"code":1003,"fclass":"village","geostat__1":"144","id":41,"name":"Zamlača","osm_id":"1517103298","population":144,"promet_dos":null,"smještaj":null,"stanovni_g":144,"tip":"selo","tipo_struk":null,"visina1":128.2103729248047,"xcoord":490864.3633243303,"ycoord":4994358.16533056},"type":"Feature"}
 ,{"geometry":{"coordinates":[16.445083,45.142136],"type":"Point"},"id":"naselja_stanovnistvo.42","properties":{"code":1003,"fclass":"village","geostat__1":"63","id":42,"name":"Divuša","osm_id":"1517114583","population":63,"promet_dos":null,"smještaj":null,"stanovni_g":63,"tip":"selo","tipo_struk":null,"visina1":115.821044921875,"xcoord":495681.11147093313,"ycoord":5000241.839177997},"type":"Feature"}
 ,{"geometry":{"coordinates":[16.430636,45.151246],"type":"Point"},"id":"naselja_stanovnistvo.43","properties":{"code":1003,"fclass":"village","geostat__1":"41","id":43,"name":"Donja Oraovica","osm_id":"1517114588","population":41,"promet_dos":null,"smještaj":null,"stanovni_g":41,"tip":"selo","tipo_struk":null,"visina1":147.8186492919922,"xcoord":494545.82927895384,"ycoord":5001255.048009957},"type":"Feature"}
 ,{"geometry":{"coordinates":[16.426235,45.135332],"type":"Point"},"id":"naselja_stanovnistvo.44","properties":{"code":1003,"fclass":"village","geostat__1":"85","id":44,"name":"Golubovac Divuški","osm_id":"1517114601","population":85,"promet_dos":null,"smještaj":null,"stanovni_g":85,"tip":"selo","tipo_struk":null,"visina1":118.12564849853516,"xcoord":494198.15128100076,"ycoord":4999486.880094159},"type":"Feature"}
 ,{"geometry":{"coordinates":[16.409377,45.163627],"type":"Point"},"id":"naselja_stanovnistvo.45","properties":{"code":1003,"fclass":"village","geostat__1":"36","id":45,"name":"Gornja Oraovica","osm_id":"1517114602","population":36,"promet_dos":null,"smještaj":null,"stanovni_g":36,"tip":"selo","tipo_struk":null,"visina1":176.06179809570313,"xcoord":492875.742437206,"ycoord":5002632.503440378},"type":"Feature"}
 ,{"geometry":{"coordinates":[16.461818,45.155116],"type":"Point"},"id":"naselja_stanovnistvo.46","properties":{"code":1003,"fclass":"village","geostat__1":"70","id":46,"name":"Kozibrod","osm_id":"1517114604","population":70,"promet_dos":null,"smještaj":null,"stanovni_g":70,"tip":"selo","tipo_struk":null,"visina1":163.55245971679688,"xcoord":496997.9044429149,"ycoord":5001683.365126028},"type":"Feature"}
 ,{"geometry":{"coordinates":[16.375068,45.141257],"type":"Point"},"id":"naselja_stanovnistvo.47","properties":{"code":1003,"fclass":"village","geostat__1":null,"id":47,"name":"Niševići","osm_id":"1517114606","population":0,"promet_dos":null,"smještaj":null,"stanovni_g":null,"tip":"selo","tipo_struk":null,"visina1":172.4671173095703,"xcoord":490174.7080400934,"ycoord":5000150.220941644},"type":"Feature"}
 ,{"geometry":{"coordinates":[16.390388,45.107243],"type":"Point"},"id":"naselja_stanovnistvo.48","properties":{"code":1003,"fclass":"village","geostat__1":"115","id":48,"name":"Struga Banska","osm_id":"1517114607","population":115,"promet_dos":null,"smještaj":null,"stanovni_g":115,"tip":"selo","tipo_struk":null,"visina1":131.24221801757813,"xcoord":491374.4408913388,"ycoord":4996368.73202408},"type":"Feature"}
 ,{"geometry":{"coordinates":[16.415285,45.129136],"type":"Point"},"id":"naselja_stanovnistvo.49","properties":{"code":1003,"fclass":"village","geostat__1":"189","id":49,"name":"Unčani","osm_id":"1517114608","population":189,"promet_dos":null,"smještaj":null,"stanovni_g":189,"tip":"selo","tipo_struk":null,"visina1":116.73123931884766,"xcoord":493336.217306571,"ycoord":4998799.260200946},"type":"Feature"}
 ,{"geometry":{"coordinates":[16.309047,45.169395],"type":"Point"},"id":"naselja_stanovnistvo.50","properties":{"code":1003,"fclass":"village","geostat__1":"32","id":50,"name":"Grabovica","osm_id":"1517147820","population":32,"promet_dos":null,"smještaj":null,"stanovni_g":32,"tip":"selo","tipo_struk":null,"visina1":326.7814636230469,"xcoord":484989.93062130053,"ycoord":5003287.131816589},"type":"Feature"}
 ,{"geometry":{"coordinates":[16.336725,45.176157],"type":"Point"},"id":"naselja_stanovnistvo.51","properties":{"code":1003,"fclass":"village","geostat__1":"53","id":51,"name":"Švrakarica","osm_id":"1517147838","population":53,"promet_dos":null,"smještaj":null,"stanovni_g":53,"tip":"selo","tipo_struk":null,"visina1":235.12599182128906,"xcoord":487167.0438185833,"ycoord":5004033.838606432},"type":"Feature"}
 ,{"geometry":{"coordinates":[16.36597,45.140777],"type":"Point"},"id":"naselja_stanovnistvo.52","properties":{"code":1003,"fclass":"village","geostat__1":"74","id":52,"name":"Kepčije","osm_id":"1517153108","population":74,"promet_dos":null,"smještaj":null,"stanovni_g":74,"tip":"selo","tipo_struk":null,"visina1":163.40945434570313,"xcoord":489459.1547153594,"ycoord":5000098.072257239},"type":"Feature"}
 ,{"geometry":{"coordinates":[16.368757,45.191417],"type":"Point"},"id":"naselja_stanovnistvo.53","properties":{"code":1003,"fclass":"village","geostat__1":"18","id":53,"name":"Zrin","osm_id":"1517153115","population":18,"promet_dos":null,"smještaj":null,"stanovni_g":18,"tip":"selo","tipo_struk":null,"visina1":230.76222229003906,"xcoord":489687.4497145867,"ycoord":5005725.016263605},"type":"Feature"}
 ,{"geometry":{"coordinates":[16.337323,45.171531],"type":"Point"},"id":"naselja_stanovnistvo.54","properties":{"code":1003,"fclass":"village","geostat__1":null,"id":54,"name":"Medakovići","osm_id":"1517238253","population":0,"promet_dos":null,"smještaj":null,"stanovni_g":0,"tip":"selo","tipo_struk":null,"visina1":288.2576904296875,"xcoord":487213.0253798959,"ycoord":5003519.694963134},"type":"Feature"}
 ,{"geometry":{"coordinates":[16.341229,45.165468],"type":"Point"},"id":"naselja_stanovnistvo.55","properties":{"code":1003,"fclass":"village","geostat__1":null,"id":55,"name":"Potočani","osm_id":"1517238258","population":0,"promet_dos":null,"smještaj":null,"stanovni_g":null,"tip":"selo","tipo_struk":null,"visina1":305.01837158203125,"xcoord":487518.78099536535,"ycoord":5002845.295044479},"type":"Feature"}
 ,{"geometry":{"coordinates":[16.381784,45.191241],"type":"Point"},"id":"naselja_stanovnistvo.56","properties":{"code":1003,"fclass":"village","geostat__1":"29","id":56,"name":"Rogulje","osm_id":"1517266684","population":29,"promet_dos":null,"smještaj":null,"stanovni_g":29,"tip":"selo","tipo_struk":null,"visina1":220.3497772216797,"xcoord":490711.00702342,"ycoord":5005703.833023565},"type":"Feature"}
 ,{"geometry":{"coordinates":[15.946367,45.243099],"type":"Point"},"id":"naselja_stanovnistvo.57","properties":{"code":1003,"fclass":"village","geostat__1":"110","id":57,"name":"Staro Selo","osm_id":"1590757174","population":154,"promet_dos":null,"smještaj":null,"stanovni_g":110,"tip":"selo","tipo_struk":null,"visina1":127.91918182373047,"xcoord":456537.1648791929,"ycoord":5011608.917754558},"type":"Feature"}
 ,{"geometry":{"coordinates":[15.990377,45.284417],"type":"Point"},"id":"naselja_stanovnistvo.58","properties":{"code":1004,"fclass":"hamlet","geostat__1":"16","id":58,"name":"Bilo","osm_id":"1603480874","population":16,"promet_dos":null,"smještaj":null,"stanovni_g":16,"tip":"zaselak","tipo_struk":null,"visina1":134.09255981445313,"xcoord":460021.142533639,"ycoord":5016177.659389139},"type":"Feature"}
 ,{"geometry":{"coordinates":[16.247187,45.44003],"type":"Point"},"id":"naselja_stanovnistvo.59","properties":{"code":1003,"fclass":"village","geostat__1":"321","id":59,"name":"Novo Selište","osm_id":"1633821812","population":321,"promet_dos":null,"smještaj":"udolinsko","stanovni_g":321,"tip":"selo","tipo_struk":null,"visina1":103.92980194091797,"xcoord":480221.6390068319,"ycoord":5033375.314233122},"type":"Feature"}
 ,{"geometry":{"coordinates":[16.25608,45.453204],"type":"Point"},"id":"naselja_stanovnistvo.60","properties":{"code":1003,"fclass":"village","geostat__1":"279","id":60,"name":"Brest Pokupski","osm_id":"1643153546","population":279,"promet_dos":null,"smještaj":"nizinsko","stanovni_g":279,"tip":"selo","tipo_struk":"aglomerirano","visina1":109.7347183227539,"xcoord":480921.81544534705,"ycoord":5034837.105981384},"type":"Feature"}
 ,{"geometry":{"coordinates":[16.244558,45.473173],"type":"Point"},"id":"naselja_stanovnistvo.61","properties":{"code":1003,"fclass":"village","geostat__1":"510","id":61,"name":"Mala Gorica","osm_id":"1643153547","population":510,"promet_dos":null,"smještaj":"nizinsko","stanovni_g":510,"tip":"selo","tipo_struk":"aglomerirano","visina1":107.02467346191406,"xcoord":480027.6753040577,"ycoord":5037059.142677153},"type":"Feature"}
 ,{"geometry":{"coordinates":[16.473774,45.3835],"type":"Point"},"id":"naselja_stanovnistvo.62","properties":{"code":1003,"fclass":"village","geostat__1":null,"id":62,"name":"Brđani Kosa","osm_id":"1767497281","population":0,"promet_dos":null,"smještaj":null,"stanovni_g":103,"tip":"selo","tipo_struk":null,"visina1":130.01107788085938,"xcoord":497946.2276922937,"ycoord":5027062.4064495275},"type":"Feature"}
 ,{"geometry":{"coordinates":[16.553632,45.310469],"type":"Point"},"id":"naselja_stanovnistvo.63","properties":{"code":1003,"fclass":"village","geostat__1":"209","id":63,"name":"Gornji Hrastovac","osm_id":"1767501350","population":209,"promet_dos":null,"smještaj":null,"stanovni_g":209,"tip":"selo","tipo_struk":null,"visina1":126.89297485351563,"xcoord":504205.41684501397,"ycoord":5018947.690425722},"type":"Feature"}
 ,{"geometry":{"coordinates":[16.544526,45.278837],"type":"Point"},"id":"naselja_stanovnistvo.64","properties":{"code":1003,"fclass":"village","geostat__1":"134","id":64,"name":"Graboštani","osm_id":"1767502489","population":134,"promet_dos":null,"smještaj":null,"stanovni_g":134,"tip":"selo","tipo_struk":null,"visina1":139.7852325439453,"xcoord":503493.31498818076,"ycoord":5015432.14907058},"type":"Feature"}
 ,{"geometry":{"coordinates":[16.530501,45.256084],"type":"Point"},"id":"naselja_stanovnistvo.65","properties":{"code":1003,"fclass":"village","geostat__1":"324","id":65,"name":"Majur","osm_id":"1767503412","population":324,"promet_dos":null,"smještaj":null,"stanovni_g":324,"tip":"selo","tipo_struk":null,"visina1":151.78172302246094,"xcoord":502393.93111812806,"ycoord":5012903.1453398755},"type":"Feature"}
 ,{"geometry":{"coordinates":[16.107111,45.303786],"type":"Point"},"id":"naselja_stanovnistvo.66","properties":{"code":1003,"fclass":"village","geostat__1":"37","id":66,"name":"Joševica","osm_id":"1958575523","population":0,"promet_dos":null,"smještaj":null,"stanovni_g":37,"tip":"selo","tipo_struk":null,"visina1":164.27474975585938,"xcoord":469189.1864349128,"ycoord":5018278.757880973},"type":"Feature"}
 ,{"geometry":{"coordinates":[15.991358,45.456855],"type":"Point"},"id":"naselja_stanovnistvo.67","properties":{"code":1003,"fclass":"village","geostat__1":"128","id":67,"name":"Gornja Bučica","osm_id":"1988669727","population":128,"promet_dos":null,"smještaj":null,"stanovni_g":128,"tip":"selo","tipo_struk":null,"visina1":176.7674102783203,"xcoord":460219.1377280908,"ycoord":5035339.850179319},"type":"Feature"}
 ,{"geometry":{"coordinates":[16.475073,45.280874],"type":"Point"},"id":"naselja_stanovnistvo.68","properties":{"code":1003,"fclass":"village","geostat__1":"43","id":68,"name":"Donji Bjelovac","osm_id":"2000352197","population":43,"promet_dos":null,"smještaj":null,"stanovni_g":43,"tip":"selo","tipo_struk":null,"visina1":178.34170532226563,"xcoord":498044.4380839492,"ycoord":5015657.839687437},"type":"Feature"}
 ,{"geometry":{"coordinates":[16.462238,45.28941],"type":"Point"},"id":"naselja_stanovnistvo.69","properties":{"code":1003,"fclass":"village","geostat__1":"53","id":69,"name":"Gornji Bjelovac","osm_id":"2000352198","population":53,"promet_dos":null,"smještaj":null,"stanovni_g":53,"tip":"selo","tipo_struk":null,"visina1":180.84048461914063,"xcoord":497037.9326549992,"ycoord":5016606.860222416},"type":"Feature"}
 ,{"geometry":{"coordinates":[16.49432,45.270831],"type":"Point"},"id":"naselja_stanovnistvo.70","properties":{"code":1003,"fclass":"village","geostat__1":"51","id":70,"name":"Gornji Kukuruzari","osm_id":"2000352199","population":51,"promet_dos":null,"smještaj":null,"stanovni_g":51,"tip":"selo","tipo_struk":null,"visina1":186.3826904296875,"xcoord":499554.2937152524,"ycoord":5014541.53637892},"type":"Feature"}
 ,{"geometry":{"coordinates":[16.488426,45.27832],"type":"Point"},"id":"naselja_stanovnistvo.71","properties":{"code":1003,"fclass":"village","geostat__1":"43","id":71,"name":"Kostreši Bjelovački","osm_id":"2000352200","population":43,"promet_dos":null,"smještaj":null,"stanovni_g":43,"tip":"selo","tipo_struk":null,"visina1":209.6575164794922,"xcoord":499091.91501754546,"ycoord":5015373.842028128},"type":"Feature"}
 ,{"geometry":{"coordinates":[16.448366,45.277962],"type":"Point"},"id":"naselja_stanovnistvo.72","properties":{"code":1003,"fclass":"village","geostat__1":"120","id":72,"name":"Prevršac","osm_id":"2000352201","population":120,"promet_dos":null,"smještaj":null,"stanovni_g":120,"tip":"selo","tipo_struk":null,"visina1":170.920166015625,"xcoord":495948.9916069714,"ycoord":5015335.290667624},"type":"Feature"}
 ,{"geometry":{"coordinates":[16.441696,45.289635],"type":"Point"},"id":"naselja_stanovnistvo.73","properties":{"code":1003,"fclass":"village","geostat__1":"73","id":73,"name":"Umetić","osm_id":"2000352202","population":73,"promet_dos":null,"smještaj":null,"stanovni_g":73,"tip":"selo","tipo_struk":null,"visina1":171.16958618164063,"xcoord":495426.6146720642,"ycoord":5016632.756962283},"type":"Feature"}
 ,{"geometry":{"coordinates":[16.448897,45.25771],"type":"Point"},"id":"naselja_stanovnistvo.74","properties":{"code":1003,"fclass":"village","geostat__1":"127","id":74,"name":"Babina Rijeka","osm_id":"2000539661","population":127,"promet_dos":null,"smještaj":null,"stanovni_g":127,"tip":"selo","tipo_struk":null,"visina1":198.59072875976563,"xcoord":495989.21836654155,"ycoord":5013084.7424555905},"type":"Feature"}
 ,{"geometry":{"coordinates":[16.48866,45.246144],"type":"Point"},"id":"naselja_stanovnistvo.75","properties":{"code":1003,"fclass":"village","geostat__1":"261","id":75,"name":"Donja Velešnja","osm_id":"2000539662","population":261,"promet_dos":null,"smještaj":null,"stanovni_g":261,"tip":"selo","tipo_struk":null,"visina1":162.5432891845703,"xcoord":499109.7946302206,"ycoord":5011798.178260053},"type":"Feature"}
 ,{"geometry":{"coordinates":[16.461252,45.241615],"type":"Point"},"id":"naselja_stanovnistvo.76","properties":{"code":1003,"fclass":"village","geostat__1":null,"id":76,"name":"Gornja Velešnja","osm_id":"2000539663","population":0,"promet_dos":null,"smještaj":null,"stanovni_g":73,"tip":"selo","tipo_struk":null,"visina1":201.8907928466797,"xcoord":496958.01463316294,"ycoord":5011295.603481516},"type":"Feature"}
 ,{"geometry":{"coordinates":[16.419258,45.304468],"type":"Point"},"id":"naselja_stanovnistvo.77","properties":{"code":1003,"fclass":"village","geostat__1":"81","id":77,"name":"Knezovljani","osm_id":"2000539664","population":81,"promet_dos":null,"smještaj":null,"stanovni_g":81,"tip":"selo","tipo_struk":null,"visina1":188.3199462890625,"xcoord":493668.18108331534,"ycoord":5018282.691427272},"type":"Feature"}
 ,{"geometry":{"coordinates":[16.377995,45.305204],"type":"Point"},"id":"naselja_stanovnistvo.78","properties":{"code":1003,"fclass":"village","geostat__1":"126","id":78,"name":"Komogovina","osm_id":"2000539665","population":126,"promet_dos":null,"smještaj":null,"stanovni_g":126,"tip":"selo","tipo_struk":null,"visina1":210.26040649414063,"xcoord":490432.44840365363,"ycoord":5018368.494850602},"type":"Feature"}
 ,{"geometry":{"coordinates":[16.523087,45.241111],"type":"Point"},"id":"naselja_stanovnistvo.79","properties":{"code":1003,"fclass":"village","geostat__1":"125","id":79,"name":"Panjani","osm_id":"2000539666","population":125,"promet_dos":null,"smještaj":null,"stanovni_g":125,"tip":"selo","tipo_struk":null,"visina1":160.50823974609375,"xcoord":501812.4969752304,"ycoord":5011239.136294891},"type":"Feature"}
 ,{"geometry":{"coordinates":[16.278763,45.441528],"type":"Point"},"id":"naselja_stanovnistvo.80","properties":{"code":1002,"fclass":"town","geostat__1":null,"id":80,"name":"PETRINJA","osm_id":"2228592112","population":15683,"promet_dos":null,"smještaj":null,"stanovni_g":15683,"tip":"grad/gradsko naselje","tipo_struk":null,"visina1":109.63801574707031,"xcoord":482692.38729992486,"ycoord":5033534.526665887},"type":"Feature"}
 ,{"geometry":{"coordinates":[16.354295,45.439125],"type":"Point"},"id":"naselja_stanovnistvo.81","properties":{"code":1003,"fclass":"village","geostat__1":"2.470","id":81,"name":"Moščenica","osm_id":"2231903673","population":2470,"promet_dos":null,"smještaj":"nizinsko","stanovni_g":2470,"tip":"selo","tipo_struk":"aglomerirano","visina1":100.90454864501953,"xcoord":488600.84638694185,"ycoord":5033253.97857072},"type":"Feature"}
 ,{"geometry":{"coordinates":[16.806366,45.188341],"type":"Point"},"id":"naselja_stanovnistvo.82","properties":{"code":1003,"fclass":"village","geostat__1":"1.040","id":82,"name":"Hrvatska Dubica","osm_id":"2234989615","population":1040,"promet_dos":null,"smještaj":null,"stanovni_g":1040,"tip":"selo","tipo_struk":null,"visina1":98.83518981933594,"xcoord":524074.3120324558,"ycoord":5005420.41312811},"type":"Feature"}
 ,{"geometry":{"coordinates":[16.782313,45.360579],"type":"Point"},"id":"naselja_stanovnistvo.83","properties":{"code":1003,"fclass":"village","geostat__1":"53","id":83,"name":"Trebež","osm_id":"2251019888","population":53,"promet_dos":null,"smještaj":null,"stanovni_g":53,"tip":"selo","tipo_struk":null,"visina1":94.64599609375,"xcoord":522117.1765506681,"ycoord":5024553.736322586},"type":"Feature"}
 ,{"geometry":{"coordinates":[16.111875,45.461365],"type":"Point"},"id":"naselja_stanovnistvo.84","properties":{"code":1003,"fclass":"village","geostat__1":"60","id":84,"name":"Vratečko","osm_id":"2341608036","population":60,"promet_dos":null,"smještaj":"udolinsko","stanovni_g":60,"tip":"selo","tipo_struk":"linijsko nepravilno izduženo","visina1":119.59634399414063,"xcoord":469647.2243675711,"ycoord":5035788.459852575},"type":"Feature"}
 ,{"geometry":{"coordinates":[16.153374,45.471868],"type":"Point"},"id":"naselja_stanovnistvo.85","properties":{"code":1003,"fclass":"village","geostat__1":"81","id":85,"name":"Novi Farkašić","osm_id":"2341608037","population":81,"promet_dos":null,"smještaj":"nizinsko","stanovni_g":81,"tip":"selo","tipo_struk":"linijsko pravilno","visina1":121.23999786376953,"xcoord":472897.6390732701,"ycoord":5036940.7787384745},"type":"Feature"}
 ,{"geometry":{"coordinates":[16.176119,45.471596],"type":"Point"},"id":"naselja_stanovnistvo.86","properties":{"code":1003,"fclass":"village","geostat__1":"272","id":86,"name":"Dumače","osm_id":"2341608038","population":272,"promet_dos":null,"smještaj":"nizinsko","stanovni_g":272,"tip":"selo","tipo_struk":"linijsko pravilno","visina1":144.2977294921875,"xcoord":474675.9368174914,"ycoord":5036903.088369005},"type":"Feature"}
 ,{"geometry":{"coordinates":[16.271159,45.410329],"type":"Point"},"id":"naselja_stanovnistvo.87","properties":{"code":1003,"fclass":"village","geostat__1":"59","id":87,"name":"Cepeliš","osm_id":"2421226300","population":59,"promet_dos":null,"smještaj":"udolinsko","stanovni_g":59,"tip":"selo","tipo_struk":"linijsko nepravilno s odvojcima","visina1":193.39382934570313,"xcoord":482087.62234746094,"ycoord":5030069.067547479},"type":"Feature"}
 ,{"geometry":{"coordinates":[16.288946,45.398602],"type":"Point"},"id":"naselja_stanovnistvo.88","properties":{"code":1003,"fclass":"village","geostat__1":"464","id":88,"name":"Hrastovica","osm_id":"2421235520","population":464,"promet_dos":null,"smještaj":"udolinsko","stanovni_g":464,"tip":"selo","tipo_struk":"zbijeno (slabo) nepravilno s odvojcima","visina1":148.53518676757813,"xcoord":483476.49835640803,"ycoord":5028762.023303959},"type":"Feature"}
 ,{"geometry":{"coordinates":[16.223697,45.403738],"type":"Point"},"id":"naselja_stanovnistvo.89","properties":{"code":1003,"fclass":"village","geostat__1":"202","id":89,"name":"Strašnik","osm_id":"2421237079","population":202,"promet_dos":null,"smještaj":"brdsko brežuljkasti","stanovni_g":202,"tip":"selo","tipo_struk":"linijsko nepravilno s odvojcima","visina1":216.83311462402344,"xcoord":478370.0726834761,"ycoord":5029348.215029299},"type":"Feature"}
 ,{"geometry":{"coordinates":[16.244507,45.421798],"type":"Point"},"id":"naselja_stanovnistvo.90","properties":{"code":1003,"fclass":"village","geostat__1":"141","id":90,"name":"Križ Hrastovački","osm_id":"2421237080","population":141,"promet_dos":null,"smještaj":"udolinsko","stanovni_g":141,"tip":"selo","tipo_struk":"linijsko nepravilno s odvojcima","visina1":144.69110107421875,"xcoord":480005.5766228754,"ycoord":5031349.816011831},"type":"Feature"}
 ,{"geometry":{"coordinates":[16.232188,45.179273],"type":"Point"},"id":"naselja_stanovnistvo.483","properties":{"code":null,"fclass":"zaselak","geostat__1":null,"id":483,"name":"Šaše","osm_id":null,"population":null,"promet_dos":null,"smještaj":null,"stanovni_g":null,"tip":"zaselak","tipo_struk":null,"visina1":389.1928405761719,"xcoord":478951.90734754904,"ycoord":5004401.980972743},"type":"Feature"}
 ,{"geometry":{"coordinates":[16.300714,45.342587],"type":"Point"},"id":"naselja_stanovnistvo.91","properties":{"code":1003,"fclass":"village","geostat__1":"96","id":91,"name":"Donja Mlinoga","osm_id":"2613931895","population":96,"promet_dos":null,"smještaj":"udolinsko","stanovni_g":96,"tip":"selo","tipo_struk":null,"visina1":165.91561889648438,"xcoord":484382.3799574503,"ycoord":5022534.867345624},"type":"Feature"}
 ,{"geometry":{"coordinates":[16.247778,45.357718],"type":"Point"},"id":"naselja_stanovnistvo.92","properties":{"code":1003,"fclass":"village","geostat__1":"142","id":92,"name":"Donja Bačuga","osm_id":"2613931899","population":142,"promet_dos":null,"smještaj":"udolinsko","stanovni_g":142,"tip":"selo","tipo_struk":"linijsko nepravilno s odvojcima","visina1":195.40440368652344,"xcoord":480239.20384936844,"ycoord":5024227.897773966},"type":"Feature"}
 ,{"geometry":{"coordinates":[16.324414,45.342163],"type":"Point"},"id":"naselja_stanovnistvo.93","properties":{"code":1003,"fclass":"village","geostat__1":"33","id":93,"name":"Gornja Mlinoga","osm_id":"2613931904","population":33,"promet_dos":null,"smještaj":"brdsko brežuljkasti","stanovni_g":33,"tip":"selo","tipo_struk":"raštrkano razgranato","visina1":288.2930603027344,"xcoord":486239.6154937598,"ycoord":5022483.393960863},"type":"Feature"}
 ,{"geometry":{"coordinates":[16.286032,45.362718],"type":"Point"},"id":"naselja_stanovnistvo.94","properties":{"code":1003,"fclass":"village","geostat__1":"86","id":94,"name":"Hrvatski Čuntić","osm_id":"2613931909","population":0,"promet_dos":null,"smještaj":"brdsko brežuljkasti","stanovni_g":86,"tip":"selo","tipo_struk":"linijsko nepravilno s odvojcima","visina1":211.47242736816406,"xcoord":483237.72885449696,"ycoord":5024774.905359002},"type":"Feature"}
 ,{"geometry":{"coordinates":[16.278857,45.351856],"type":"Point"},"id":"naselja_stanovnistvo.95","properties":{"code":1003,"fclass":"village","geostat__1":"79","id":95,"name":"Prnjavor Čuntićki","osm_id":"2613931915","population":79,"promet_dos":null,"smještaj":"brdsko brežuljkasti","stanovni_g":79,"tip":"selo","tipo_struk":"linijsko nepravilno s odvojcima","visina1":160.50033569335938,"xcoord":482672.3642662453,"ycoord":5023569.388899002},"type":"Feature"}
 ,{"geometry":{"coordinates":[16.29697,45.355961],"type":"Point"},"id":"naselja_stanovnistvo.96","properties":{"code":1003,"fclass":"village","geostat__1":"27","id":96,"name":"Čuntić","osm_id":"2613933171","population":0,"promet_dos":null,"smještaj":"brdsko brežuljkasti","stanovni_g":27,"tip":"selo","tipo_struk":"nepravilno raspršeno","visina1":258.4074401855469,"xcoord":484092.71774658066,"ycoord":5024021.774589652},"type":"Feature"}
 ,{"geometry":{"coordinates":[16.262624,45.371062],"type":"Point"},"id":"naselja_stanovnistvo.97","properties":{"code":1003,"fclass":"village","geostat__1":"79","id":97,"name":"Gornja Bačuga","osm_id":"2613945302","population":79,"promet_dos":null,"smještaj":"brdsko brežuljkasti","stanovni_g":79,"tip":"selo","tipo_struk":"linijsko nepravilno izduženo","visina1":265.5723876953125,"xcoord":481406.74426931114,"ycoord":5025707.339700179},"type":"Feature"}
 ,{"geometry":{"coordinates":[15.915337,45.219142],"type":"Point"},"id":"naselja_stanovnistvo.98","properties":{"code":1003,"fclass":"village","geostat__1":"547","id":98,"name":"Poljana","osm_id":"2628751619","population":0,"promet_dos":null,"smještaj":null,"stanovni_g":547,"tip":"selo","tipo_struk":null,"visina1":166.85943603515625,"xcoord":454081.8724365714,"ycoord":5008963.842977053},"type":"Feature"}
 ,{"geometry":{"coordinates":[16.698715,45.352994],"type":"Point"},"id":"naselja_stanovnistvo.99","properties":{"code":1003,"fclass":"village","geostat__1":"135","id":99,"name":"Strmen","osm_id":"2629155907","population":135,"promet_dos":null,"smještaj":null,"stanovni_g":135,"tip":"selo","tipo_struk":null,"visina1":92.6738510131836,"xcoord":515569.9639396305,"ycoord":5023691.21561207},"type":"Feature"}
 ,{"geometry":{"coordinates":[16.827112,45.302066],"type":"Point"},"id":"naselja_stanovnistvo.100","properties":{"code":1003,"fclass":"village","geostat__1":"144","id":100,"name":"Krapje","osm_id":"2629204602","population":144,"promet_dos":null,"smještaj":null,"stanovni_g":144,"tip":"selo","tipo_struk":null,"visina1":96.01127624511719,"xcoord":525653.3081545595,"ycoord":5018064.592137808},"type":"Feature"}
 ,{"geometry":{"coordinates":[16.753405,45.204284],"type":"Point"},"id":"naselja_stanovnistvo.101","properties":{"code":1003,"fclass":"village","geostat__1":"217","id":101,"name":"Baćin","osm_id":"2641226300","population":217,"promet_dos":null,"smještaj":null,"stanovni_g":217,"tip":"selo","tipo_struk":null,"visina1":114.98374938964844,"xcoord":519907.08819404617,"ycoord":5007177.704145138},"type":"Feature"}
 ,{"geometry":{"coordinates":[16.090786,45.33826],"type":"Point"},"id":"naselja_stanovnistvo.102","properties":{"code":1002,"fclass":"town","geostat__1":null,"id":102,"name":"GLINA","osm_id":"2808440038","population":4680,"promet_dos":null,"smještaj":null,"stanovni_g":4680,"tip":"grad/gradsko naselje","tipo_struk":null,"visina1":113.35332489013672,"xcoord":467928.4239280726,"ycoord":5022116.139271199},"type":"Feature"}
 ,{"geometry":{"coordinates":[16.369863,45.050829],"type":"Point"},"id":"naselja_stanovnistvo.103","properties":{"code":1003,"fclass":"village","geostat__1":"645","id":103,"name":"Matijevići","osm_id":"2933325721","population":645,"promet_dos":null,"smještaj":null,"stanovni_g":645,"tip":"selo","tipo_struk":null,"visina1":123.33235168457031,"xcoord":489749.21092840936,"ycoord":4990102.333266098},"type":"Feature"}
 ,{"geometry":{"coordinates":[16.147177,45.150595],"type":"Point"},"id":"naselja_stanovnistvo.104","properties":{"code":1003,"fclass":"village","geostat__1":"46","id":104,"name":"Donji Žirovac","osm_id":"2983707060","population":46,"promet_dos":null,"smještaj":null,"stanovni_g":46,"tip":"selo","tipo_struk":null,"visina1":312.6566162109375,"xcoord":472256.7916671904,"ycoord":5001240.848225698},"type":"Feature"}
 ,{"geometry":{"coordinates":[16.134819,45.121783],"type":"Point"},"id":"naselja_stanovnistvo.105","properties":{"code":1003,"fclass":"village","geostat__1":"22","id":105,"name":"Gornji Žirovac","osm_id":"2983707061","population":22,"promet_dos":null,"smještaj":null,"stanovni_g":22,"tip":"selo","tipo_struk":null,"visina1":229.18560791015625,"xcoord":471270.5839359342,"ycoord":4998043.502130092},"type":"Feature"}
 ,{"geometry":{"coordinates":[16.266028,45.128714],"type":"Point"},"id":"naselja_stanovnistvo.106","properties":{"code":1003,"fclass":"village","geostat__1":"254","id":106,"name":"Rujevac","osm_id":"2983710499","population":254,"promet_dos":null,"smještaj":null,"stanovni_g":254,"tip":"selo","tipo_struk":null,"visina1":195.42843627929688,"xcoord":481595.25539550465,"ycoord":4998775.4289156515},"type":"Feature"}
 ,{"geometry":{"coordinates":[16.671925,45.209379],"type":"Point"},"id":"naselja_stanovnistvo.107","properties":{"code":1003,"fclass":"village","geostat__1":"348","id":107,"name":"Slabinja","osm_id":"3008325677","population":348,"promet_dos":null,"smještaj":null,"stanovni_g":348,"tip":"selo","tipo_struk":null,"visina1":110.23416137695313,"xcoord":513504.8979466198,"ycoord":5007726.980347707},"type":"Feature"}
 ,{"geometry":{"coordinates":[16.660322,45.238091],"type":"Point"},"id":"naselja_stanovnistvo.108","properties":{"code":1003,"fclass":"village","geostat__1":"68","id":108,"name":"Utolica","osm_id":"3008326507","population":0,"promet_dos":null,"smještaj":null,"stanovni_g":68,"tip":"selo","tipo_struk":null,"visina1":129.96115112304688,"xcoord":512587.1690348384,"ycoord":5010915.782530128},"type":"Feature"}
 ,{"geometry":{"coordinates":[16.72339,45.245315],"type":"Point"},"id":"naselja_stanovnistvo.109","properties":{"code":1003,"fclass":"village","geostat__1":"309","id":109,"name":"Živaja","osm_id":"3008647851","population":309,"promet_dos":null,"smještaj":null,"stanovni_g":309,"tip":"selo","tipo_struk":null,"visina1":99.02155303955078,"xcoord":517536.52577162156,"ycoord":5011730.258433677},"type":"Feature"}
 ,{"geometry":{"coordinates":[16.772976,45.219287],"type":"Point"},"id":"naselja_stanovnistvo.110","properties":{"code":1003,"fclass":"village","geostat__1":"99","id":110,"name":"Gornji Cerovljani","osm_id":"3008663231","population":99,"promet_dos":null,"smještaj":null,"stanovni_g":99,"tip":"selo","tipo_struk":null,"visina1":101.71034240722656,"xcoord":521438.9073709071,"ycoord":5008849.887776136},"type":"Feature"}
 ,{"geometry":{"coordinates":[16.79688,45.209204],"type":"Point"},"id":"naselja_stanovnistvo.111","properties":{"code":1003,"fclass":"village","geostat__1":"76","id":111,"name":"Donji Cerovljani","osm_id":"3008663232","population":76,"promet_dos":null,"smještaj":null,"stanovni_g":76,"tip":"selo","tipo_struk":null,"visina1":100.80538940429688,"xcoord":523320.3757950092,"ycoord":5007736.109438165},"type":"Feature"}
 ,{"geometry":{"coordinates":[16.679226,45.272627],"type":"Point"},"id":"naselja_stanovnistvo.112","properties":{"code":1003,"fclass":"village","geostat__1":"307","id":112,"name":"Šaš","osm_id":"3008674884","population":307,"promet_dos":null,"smještaj":null,"stanovni_g":307,"tip":"selo","tipo_struk":null,"visina1":104.99507904052734,"xcoord":514062.8208016857,"ycoord":5014756.685035648},"type":"Feature"}
 ,{"geometry":{"coordinates":[16.652519,45.287418],"type":"Point"},"id":"naselja_stanovnistvo.113","properties":{"code":1003,"fclass":"village","geostat__1":"152","id":113,"name":"Slovinci","osm_id":"3008674885","population":152,"promet_dos":null,"smještaj":null,"stanovni_g":152,"tip":"selo","tipo_struk":null,"visina1":104.91899108886719,"xcoord":511964.1925182168,"ycoord":5016396.097136519},"type":"Feature"}
 ,{"geometry":{"coordinates":[16.636084,45.291176],"type":"Point"},"id":"naselja_stanovnistvo.114","properties":{"code":1004,"fclass":"hamlet","geostat__1":"71","id":114,"name":"Kostreši Šaški","osm_id":"3008688256","population":71,"promet_dos":null,"smještaj":null,"stanovni_g":71,"tip":"zaselak","tipo_struk":null,"visina1":127.6265869140625,"xcoord":510674.2090393849,"ycoord":5016811.368953171},"type":"Feature"}
 ,{"geometry":{"coordinates":[15.965795,45.454667],"type":"Point"},"id":"naselja_stanovnistvo.115","properties":{"code":1003,"fclass":"village","geostat__1":"86","id":115,"name":"Desni Degoj","osm_id":"3081516993","population":86,"promet_dos":null,"smještaj":null,"stanovni_g":86,"tip":"selo","tipo_struk":null,"visina1":180.06161499023438,"xcoord":458218.2972828041,"ycoord":5035109.577595626},"type":"Feature"}
 ,{"geometry":{"coordinates":[15.881921,45.481097],"type":"Point"},"id":"naselja_stanovnistvo.116","properties":{"code":1003,"fclass":"village","geostat__1":"46","id":116,"name":"Dugo Selo Lasinjsko","osm_id":"3081516996","population":46,"promet_dos":null,"smještaj":null,"stanovni_g":46,"tip":"selo","tipo_struk":null,"visina1":209.13461303710938,"xcoord":451680.79516970355,"ycoord":5038093.773009969},"type":"Feature"}
 ,{"geometry":{"coordinates":[15.940926,45.456277],"type":"Point"},"id":"naselja_stanovnistvo.117","properties":{"code":1003,"fclass":"village","geostat__1":"93","id":117,"name":"Ilovačak","osm_id":"3081516997","population":93,"promet_dos":null,"smještaj":null,"stanovni_g":93,"tip":"selo","tipo_struk":null,"visina1":185.60809326171875,"xcoord":456274.40326009516,"ycoord":5035301.800406405},"type":"Feature"}
 ,{"geometry":{"coordinates":[15.874824,45.457897],"type":"Point"},"id":"naselja_stanovnistvo.118","properties":{"code":1003,"fclass":"village","geostat__1":"50","id":118,"name":"Stipan","osm_id":"3081517000","population":50,"promet_dos":null,"smještaj":null,"stanovni_g":50,"tip":"selo","tipo_struk":null,"visina1":187.40721130371094,"xcoord":451105.9542443255,"ycoord":5035519.9216234},"type":"Feature"}
 ,{"geometry":{"coordinates":[15.911045,45.476446],"type":"Point"},"id":"naselja_stanovnistvo.119","properties":{"code":1003,"fclass":"village","geostat__1":"5","id":119,"name":"Trepča","osm_id":"3081517002","population":5,"promet_dos":null,"smještaj":null,"stanovni_g":5,"tip":"selo","tipo_struk":null,"visina1":182.38560485839844,"xcoord":453953.88494454935,"ycoord":5037559.839945112},"type":"Feature"}
 ,{"geometry":{"coordinates":[16.675229,45.376845],"type":"Point"},"id":"naselja_stanovnistvo.120","properties":{"code":1003,"fclass":"village","geostat__1":"330","id":120,"name":"Bobovac","osm_id":"3143548272","population":330,"promet_dos":null,"smještaj":null,"stanovni_g":330,"tip":"selo","tipo_struk":null,"visina1":95.65499114990234,"xcoord":513723.97317278764,"ycoord":5026337.418802602},"type":"Feature"}
 ,{"geometry":{"coordinates":[16.620096,45.396849],"type":"Point"},"id":"naselja_stanovnistvo.121","properties":{"code":1003,"fclass":"village","geostat__1":"37","id":121,"name":"Selišće Sunjsko","osm_id":"3143548273","population":37,"promet_dos":null,"smještaj":null,"stanovni_g":37,"tip":"selo","tipo_struk":null,"visina1":96.11962127685547,"xcoord":509402.685904374,"ycoord":5028552.529486039},"type":"Feature"}
 ,{"geometry":{"coordinates":[16.713969,45.34554],"type":"Point"},"id":"naselja_stanovnistvo.122","properties":{"code":1003,"fclass":"village","geostat__1":"117","id":122,"name":"Crkveni Bok","osm_id":"3144214163","population":117,"promet_dos":null,"smještaj":null,"stanovni_g":117,"tip":"selo","tipo_struk":null,"visina1":92.8237075805664,"xcoord":516767.3821737231,"ycoord":5022866.000415643},"type":"Feature"}
 ,{"geometry":{"coordinates":[16.741154,45.344297],"type":"Point"},"id":"naselja_stanovnistvo.123","properties":{"code":1003,"fclass":"village","geostat__1":"35","id":123,"name":"Ivanjski Bok","osm_id":"3144214164","population":35,"promet_dos":null,"smještaj":null,"stanovni_g":35,"tip":"selo","tipo_struk":null,"visina1":94.57937622070313,"xcoord":518898.1427946551,"ycoord":5022733.810179275},"type":"Feature"}
 ,{"geometry":{"coordinates":[16.805688,45.197834],"type":"Point"},"id":"naselja_stanovnistvo.124","properties":{"code":1004,"fclass":"hamlet","geostat__1":null,"id":124,"name":"Dubička Brda","osm_id":"3145511110","population":0,"promet_dos":null,"smještaj":null,"stanovni_g":null,"tip":"zaselak","tipo_struk":null,"visina1":146.95135498046875,"xcoord":524017.0648371964,"ycoord":5006475.171106876},"type":"Feature"}
 ,{"geometry":{"coordinates":[16.570422,45.341001],"type":"Point"},"id":"naselja_stanovnistvo.125","properties":{"code":1003,"fclass":"village","geostat__1":"217","id":125,"name":"Donji Hrastovac","osm_id":"3158987657","population":217,"promet_dos":null,"smještaj":null,"stanovni_g":217,"tip":"selo","tipo_struk":null,"visina1":131.68052673339844,"xcoord":505518.9890216516,"ycoord":5022341.700793173},"type":"Feature"}
 ,{"geometry":{"coordinates":[16.592873,45.298302],"type":"Point"},"id":"naselja_stanovnistvo.126","properties":{"code":1003,"fclass":"village","geostat__1":"17","id":126,"name":"Gornja Meminska","osm_id":"3158987658","population":17,"promet_dos":null,"smještaj":null,"stanovni_g":17,"tip":"selo","tipo_struk":null,"visina1":155.87353515625,"xcoord":507283.93289854913,"ycoord":5017598.4096701415},"type":"Feature"}
 ,{"geometry":{"coordinates":[16.614009,45.307989],"type":"Point"},"id":"naselja_stanovnistvo.127","properties":{"code":1003,"fclass":"village","geostat__1":"41","id":127,"name":"Jasenovčani","osm_id":"3158987659","population":41,"promet_dos":null,"smještaj":null,"stanovni_g":41,"tip":"selo","tipo_struk":null,"visina1":131.1001739501953,"xcoord":508940.03400620155,"ycoord":5018677.120034883},"type":"Feature"}
 ,{"geometry":{"coordinates":[16.639599,45.294297],"type":"Point"},"id":"naselja_stanovnistvo.128","properties":{"code":1003,"fclass":"village","geostat__1":null,"id":128,"name":"Kostreši","osm_id":"3158987660","population":0,"promet_dos":null,"smještaj":null,"stanovni_g":null,"tip":"selo","tipo_struk":null,"visina1":103.18463897705078,"xcoord":510949.3751191006,"ycoord":5017158.6547766635},"type":"Feature"}
 ,{"geometry":{"coordinates":[16.570843,45.275925],"type":"Point"},"id":"naselja_stanovnistvo.129","properties":{"code":1003,"fclass":"village","geostat__1":"42","id":129,"name":"Mračaj","osm_id":"3158987661","population":42,"promet_dos":null,"smještaj":null,"stanovni_g":42,"tip":"selo","tipo_struk":null,"visina1":144.25477600097656,"xcoord":505558.2765831944,"ycoord":5015110.07134724},"type":"Feature"}
 ,{"geometry":{"coordinates":[16.619799,45.30116],"type":"Point"},"id":"naselja_stanovnistvo.130","properties":{"code":1003,"fclass":"village","geostat__1":"56","id":130,"name":"Papići","osm_id":"3158987662","population":56,"promet_dos":null,"smještaj":null,"stanovni_g":56,"tip":"selo","tipo_struk":null,"visina1":134.31956481933594,"xcoord":509395.2109056141,"ycoord":5017918.850530878},"type":"Feature"}
 ,{"geometry":{"coordinates":[16.590472,45.31457],"type":"Point"},"id":"naselja_stanovnistvo.131","properties":{"code":1003,"fclass":"village","geostat__1":"29","id":131,"name":"Pobrđani","osm_id":"3158987663","population":22,"promet_dos":null,"smještaj":null,"stanovni_g":29,"tip":"selo","tipo_struk":null,"visina1":132.0455322265625,"xcoord":507093.54121181316,"ycoord":5019406.003815497},"type":"Feature"}
 ,{"geometry":{"coordinates":[16.608472,45.260778],"type":"Point"},"id":"naselja_stanovnistvo.132","properties":{"code":1004,"fclass":"hamlet","geostat__1":"28","id":132,"name":"Rausovac","osm_id":"3158987664","population":28,"promet_dos":null,"smještaj":null,"stanovni_g":28,"tip":"zaselak","tipo_struk":null,"visina1":165.2013702392578,"xcoord":508512.95298472204,"ycoord":5013430.051971554},"type":"Feature"}
 ,{"geometry":{"coordinates":[16.600666,45.278047],"type":"Point"},"id":"naselja_stanovnistvo.133","properties":{"code":1003,"fclass":"village","geostat__1":"58","id":133,"name":"Srednja Meminska","osm_id":"3158987665","population":58,"promet_dos":null,"smještaj":null,"stanovni_g":58,"tip":"selo","tipo_struk":null,"visina1":132.0751953125,"xcoord":507897.89956404606,"ycoord":5015348.346935689},"type":"Feature"}
 ,{"geometry":{"coordinates":[16.59232,45.324037],"type":"Point"},"id":"naselja_stanovnistvo.134","properties":{"code":1003,"fclass":"village","geostat__1":"220","id":134,"name":"Staza","osm_id":"3158987666","population":220,"promet_dos":null,"smještaj":null,"stanovni_g":220,"tip":"selo","tipo_struk":null,"visina1":108.98291778564453,"xcoord":507237.2856432484,"ycoord":5020458.295492138},"type":"Feature"}
 ,{"geometry":{"coordinates":[16.624645,45.284544],"type":"Point"},"id":"naselja_stanovnistvo.135","properties":{"code":1003,"fclass":"village","geostat__1":"119","id":135,"name":"Timarci","osm_id":"3158987667","population":119,"promet_dos":null,"smještaj":null,"stanovni_g":119,"tip":"selo","tipo_struk":null,"visina1":146.4486541748047,"xcoord":509778.0890871397,"ycoord":5016072.950751193},"type":"Feature"}
 ,{"geometry":{"coordinates":[16.644818,45.248802],"type":"Point"},"id":"naselja_stanovnistvo.136","properties":{"code":1003,"fclass":"village","geostat__1":"68","id":136,"name":"Utolica","osm_id":"3158987668","population":0,"promet_dos":null,"smještaj":null,"stanovni_g":68,"tip":"selo","tipo_struk":null,"visina1":120.42350769042969,"xcoord":511367.7943883102,"ycoord":5012103.734307008},"type":"Feature"}
 ,{"geometry":{"coordinates":[16.567927,45.349597],"type":"Point"},"id":"naselja_stanovnistvo.137","properties":{"code":1003,"fclass":"village","geostat__1":"119","id":137,"name":"Vedro Polje","osm_id":"3158987669","population":119,"promet_dos":null,"smještaj":null,"stanovni_g":119,"tip":"selo","tipo_struk":null,"visina1":103.03713989257813,"xcoord":505322.6504669667,"ycoord":5023296.817435922},"type":"Feature"}
 ,{"geometry":{"coordinates":[16.606232,45.315147],"type":"Point"},"id":"naselja_stanovnistvo.138","properties":{"code":1003,"fclass":"village","geostat__1":null,"id":138,"name":"Čapljani","osm_id":"3158988242","population":0,"promet_dos":null,"smještaj":null,"stanovni_g":37,"tip":"selo","tipo_struk":null,"visina1":104.64028930664063,"xcoord":508329.16446712083,"ycoord":5019471.632092778},"type":"Feature"}
 ,{"geometry":{"coordinates":[16.051892,45.356709],"type":"Point"},"id":"naselja_stanovnistvo.139","properties":{"code":1003,"fclass":"village","geostat__1":"468","id":139,"name":"Gornji Viduševac","osm_id":"3172058712","population":468,"promet_dos":null,"smještaj":null,"stanovni_g":468,"tip":"selo","tipo_struk":null,"visina1":145.62586975097656,"xcoord":464891.54174848174,"ycoord":5024182.517114148},"type":"Feature"}
 ,{"geometry":{"coordinates":[16.148689,45.420256],"type":"Point"},"id":"naselja_stanovnistvo.140","properties":{"code":1003,"fclass":"village","geostat__1":"121","id":140,"name":"Glinska Poljana","osm_id":"3195273903","population":121,"promet_dos":null,"smještaj":"udolinsko","stanovni_g":121,"tip":"selo","tipo_struk":"linijsko nepravilno izduženo","visina1":114.58194732666016,"xcoord":472506.2230327726,"ycoord":5031206.739180325},"type":"Feature"}
 ,{"geometry":{"coordinates":[16.192207,45.417962],"type":"Point"},"id":"naselja_stanovnistvo.141","properties":{"code":1003,"fclass":"village","geostat__1":"264","id":141,"name":"Gora","osm_id":"3195273904","population":264,"promet_dos":null,"smještaj":"udolinsko","stanovni_g":264,"tip":"selo","tipo_struk":"linijsko nepravilno izduženo","visina1":150.93185424804688,"xcoord":475910.9715137765,"ycoord":5030937.92346029},"type":"Feature"}
 ,{"geometry":{"coordinates":[16.124448,45.414886],"type":"Point"},"id":"naselja_stanovnistvo.142","properties":{"code":1003,"fclass":"village","geostat__1":"22","id":142,"name":"Donje Jame","osm_id":"3195273905","population":22,"promet_dos":null,"smještaj":null,"stanovni_g":22,"tip":"selo","tipo_struk":null,"visina1":123.68531799316406,"xcoord":470606.3094632839,"ycoord":5030618.582262707},"type":"Feature"}
 ,{"geometry":{"coordinates":[16.635056,45.385549],"type":"Point"},"id":"naselja_stanovnistvo.143","properties":{"code":1003,"fclass":"village","geostat__1":"40","id":143,"name":"Bistrač","osm_id":"3270049561","population":40,"promet_dos":null,"smještaj":null,"stanovni_g":40,"tip":"selo","tipo_struk":null,"visina1":95.02620697021484,"xcoord":510575.9833367263,"ycoord":5027298.614136554},"type":"Feature"}
 ,{"geometry":{"coordinates":[16.604206,45.231797],"type":"Point"},"id":"naselja_stanovnistvo.144","properties":{"code":1003,"fclass":"village","geostat__1":"192","id":144,"name":"Rosulje","osm_id":"3305865380","population":192,"promet_dos":null,"smještaj":null,"stanovni_g":192,"tip":"selo","tipo_struk":null,"visina1":111.3861312866211,"xcoord":508182.3302693182,"ycoord":5010209.160997744},"type":"Feature"}
 ,{"geometry":{"coordinates":[16.57579,45.252595],"type":"Point"},"id":"naselja_stanovnistvo.145","properties":{"code":1003,"fclass":"village","geostat__1":"102","id":145,"name":"Selište Kostajničko","osm_id":"3305865381","population":102,"promet_dos":null,"smještaj":null,"stanovni_g":102,"tip":"selo","tipo_struk":null,"visina1":142.1267852783203,"xcoord":505948.86824997194,"ycoord":5012517.79201808},"type":"Feature"}
 ,{"geometry":{"coordinates":[16.504036,45.23089],"type":"Point"},"id":"naselja_stanovnistvo.146","properties":{"code":1003,"fclass":"village","geostat__1":"114","id":146,"name":"Čukur","osm_id":"3312132963","population":114,"promet_dos":null,"smještaj":null,"stanovni_g":114,"tip":"selo","tipo_struk":null,"visina1":191.5467071533203,"xcoord":500316.93701566686,"ycoord":5010103.029030293},"type":"Feature"}
 ,{"geometry":{"coordinates":[16.50069,45.234671],"type":"Point"},"id":"naselja_stanovnistvo.147","properties":{"code":1004,"fclass":"hamlet","geostat__1":null,"id":147,"name":"Mali Čukur","osm_id":"3318222835","population":0,"promet_dos":null,"smještaj":null,"stanovni_g":null,"tip":"zaselak","tipo_struk":null,"visina1":199.94552612304688,"xcoord":500054.19991417316,"ycoord":5010523.241329195},"type":"Feature"}
 ,{"geometry":{"coordinates":[16.507814,45.230519],"type":"Point"},"id":"naselja_stanovnistvo.148","properties":{"code":1004,"fclass":"hamlet","geostat__1":null,"id":148,"name":"Veliki Čukur","osm_id":"3318222836","population":0,"promet_dos":null,"smještaj":null,"stanovni_g":null,"tip":"zaselak","tipo_struk":null,"visina1":208.9517059326172,"xcoord":500613.5409125579,"ycoord":5010061.801141467},"type":"Feature"}
 ,{"geometry":{"coordinates":[16.065591,45.451264],"type":"Point"},"id":"naselja_stanovnistvo.149","properties":{"code":1003,"fclass":"village","geostat__1":"24","id":149,"name":"Gračanica Šišinečka","osm_id":"3344599071","population":24,"promet_dos":null,"smještaj":null,"stanovni_g":24,"tip":"selo","tipo_struk":null,"visina1":110.56649780273438,"xcoord":466021.54133649153,"ycoord":5034684.393073623},"type":"Feature"}
 ,{"geometry":{"coordinates":[16.090628,45.426552],"type":"Point"},"id":"naselja_stanovnistvo.150","properties":{"code":1003,"fclass":"village","geostat__1":"24","id":150,"name":"Stankovac","osm_id":"3344599072","population":24,"promet_dos":null,"smještaj":null,"stanovni_g":24,"tip":"selo","tipo_struk":null,"visina1":121.62808227539063,"xcoord":467965.9106834284,"ycoord":5031927.880411011},"type":"Feature"}
 ,{"geometry":{"coordinates":[16.049339,45.462128],"type":"Point"},"id":"naselja_stanovnistvo.151","properties":{"code":1003,"fclass":"village","geostat__1":"20","id":151,"name":"Zaloj","osm_id":"3357397815","population":20,"promet_dos":null,"smještaj":null,"stanovni_g":20,"tip":"selo","tipo_struk":null,"visina1":138.57164001464844,"xcoord":464757.1407570754,"ycoord":5035898.757014711},"type":"Feature"}
 ,{"geometry":{"coordinates":[16.044733,45.468989],"type":"Point"},"id":"naselja_stanovnistvo.152","properties":{"code":1004,"fclass":"hamlet","geostat__1":null,"id":152,"name":"Trdenići","osm_id":"3357397827","population":0,"promet_dos":null,"smještaj":null,"stanovni_g":null,"tip":"zaselak","tipo_struk":null,"visina1":137.39271545410156,"xcoord":464401.2427251317,"ycoord":5036663.247852872},"type":"Feature"}
 ,{"geometry":{"coordinates":[16.051711,45.389229],"type":"Point"},"id":"naselja_stanovnistvo.153","properties":{"code":1003,"fclass":"village","geostat__1":"69","id":153,"name":"Velika Solina","osm_id":"3368295726","population":69,"promet_dos":null,"smještaj":null,"stanovni_g":69,"tip":"selo","tipo_struk":null,"visina1":180.6054229736328,"xcoord":464897.4532800384,"ycoord":5027796.4759669565},"type":"Feature"}
 ,{"geometry":{"coordinates":[16.014979,45.431858],"type":"Point"},"id":"naselja_stanovnistvo.154","properties":{"code":1003,"fclass":"village","geostat__1":"56","id":154,"name":"Gornje Taborište","osm_id":"3368296001","population":56,"promet_dos":null,"smještaj":null,"stanovni_g":56,"tip":"selo","tipo_struk":null,"visina1":196.49288940429688,"xcoord":462049.838290261,"ycoord":5032550.444304287},"type":"Feature"}
 ,{"geometry":{"coordinates":[16.119751,45.379764],"type":"Point"},"id":"naselja_stanovnistvo.155","properties":{"code":1003,"fclass":"village","geostat__1":"50","id":155,"name":"Hađer","osm_id":"3368296531","population":50,"promet_dos":null,"smještaj":null,"stanovni_g":50,"tip":"selo","tipo_struk":null,"visina1":158.57308959960938,"xcoord":470220.2579841509,"ycoord":5026717.29084413},"type":"Feature"}
 ,{"geometry":{"coordinates":[16.080891,45.410078],"type":"Point"},"id":"naselja_stanovnistvo.156","properties":{"code":1003,"fclass":"village","geostat__1":"15","id":156,"name":"Mala Solina","osm_id":"3368296532","population":15,"promet_dos":null,"smještaj":null,"stanovni_g":15,"tip":"selo","tipo_struk":null,"visina1":199.14334106445313,"xcoord":467194.435123845,"ycoord":5030101.102100968},"type":"Feature"}
 ,{"geometry":{"coordinates":[16.068948,45.439574],"type":"Point"},"id":"naselja_stanovnistvo.157","properties":{"code":1004,"fclass":"hamlet","geostat__1":null,"id":157,"name":"Linija","osm_id":"3372355452","population":0,"promet_dos":null,"smještaj":null,"stanovni_g":null,"tip":"zaselak","tipo_struk":null,"visina1":111.33930969238281,"xcoord":466277.185003987,"ycoord":5033383.955584219},"type":"Feature"}
 ,{"geometry":{"coordinates":[16.167859,45.38798],"type":"Point"},"id":"naselja_stanovnistvo.158","properties":{"code":1003,"fclass":"village","geostat__1":"155","id":158,"name":"Graberje","osm_id":"3373267372","population":155,"promet_dos":null,"smještaj":"udolinsko","stanovni_g":155,"tip":"selo","tipo_struk":"zbijeno (slabo) nepravilno","visina1":121.04218292236328,"xcoord":473991.70971186226,"ycoord":5027613.63648041},"type":"Feature"}
 ,{"geometry":{"coordinates":[16.136456,45.442541],"type":"Point"},"id":"naselja_stanovnistvo.159","properties":{"code":1003,"fclass":"village","geostat__1":"92","id":159,"name":"Slana","osm_id":"3373272486","population":92,"promet_dos":null,"smještaj":"udolinsko","stanovni_g":92,"tip":"selo","tipo_struk":"linijsko nepravilno izduženo","visina1":134.5885467529297,"xcoord":471560.0968187523,"ycoord":5033687.581949471},"type":"Feature"}
 ,{"geometry":{"coordinates":[16.205283,45.439568],"type":"Point"},"id":"naselja_stanovnistvo.160","properties":{"code":1003,"fclass":"village","geostat__1":"105","id":160,"name":"Gornje Mokrice","osm_id":"3381025340","population":105,"promet_dos":null,"smještaj":"udolinsko","stanovni_g":105,"tip":"selo","tipo_struk":"linijsko nepravilno s odvojcima","visina1":124.77227783203125,"xcoord":476943.1996929905,"ycoord":5033335.055536238},"type":"Feature"}
 ,{"geometry":{"coordinates":[16.191442,45.443158],"type":"Point"},"id":"naselja_stanovnistvo.161","properties":{"code":1003,"fclass":"village","geostat__1":"36","id":161,"name":"Međurače","osm_id":"3381025345","population":36,"promet_dos":null,"smještaj":"udolinsko","stanovni_g":36,"tip":"selo","tipo_struk":"linijsko nepravilno s odvojcima","visina1":128.5406036376953,"xcoord":475861.87349702575,"ycoord":5033738.14929232},"type":"Feature"}
 ,{"geometry":{"coordinates":[16.191119,45.44909],"type":"Point"},"id":"naselja_stanovnistvo.162","properties":{"code":1003,"fclass":"village","geostat__1":"33","id":162,"name":"Srednje Mokrice","osm_id":"3381025369","population":33,"promet_dos":null,"smještaj":"udolinsko","stanovni_g":33,"tip":"selo","tipo_struk":"linijsko nepravilno s odvojcima","visina1":128.6349639892578,"xcoord":475839.14561329124,"ycoord":5034397.398957728},"type":"Feature"}
 ,{"geometry":{"coordinates":[16.180498,45.4549],"type":"Point"},"id":"naselja_stanovnistvo.163","properties":{"code":1003,"fclass":"village","geostat__1":"57","id":163,"name":"Donje Mokrice","osm_id":"3381025386","population":57,"promet_dos":null,"smještaj":"udolinsko","stanovni_g":57,"tip":"selo","tipo_struk":"linijsko nepravilno s odvojcima","visina1":121.61196899414063,"xcoord":475010.88347556686,"ycoord":5035046.352401455},"type":"Feature"}
 ,{"geometry":{"coordinates":[16.358921,45.25915],"type":"Point"},"id":"naselja_stanovnistvo.164","properties":{"code":1003,"fclass":"village","geostat__1":"19","id":164,"name":"Lovča","osm_id":"3385817011","population":19,"promet_dos":null,"smještaj":null,"stanovni_g":19,"tip":"selo","tipo_struk":null,"visina1":332.487060546875,"xcoord":488927.77178025513,"ycoord":5013253.108805781},"type":"Feature"}
 ,{"geometry":{"coordinates":[16.347873,45.238017],"type":"Point"},"id":"naselja_stanovnistvo.165","properties":{"code":1003,"fclass":"village","geostat__1":null,"id":165,"name":"Gornja Lovča","osm_id":"3385817065","population":0,"promet_dos":null,"smještaj":null,"stanovni_g":null,"tip":"selo","tipo_struk":null,"visina1":345.115234375,"xcoord":488056.21915892896,"ycoord":5010906.258050925},"type":"Feature"}
 ,{"geometry":{"coordinates":[16.333409,45.319474],"type":"Point"},"id":"naselja_stanovnistvo.166","properties":{"code":1003,"fclass":"village","geostat__1":"31","id":166,"name":"Gornja Pastuša","osm_id":"3390657095","population":31,"promet_dos":null,"smještaj":"brdsko brežuljkasti","stanovni_g":31,"tip":"selo","tipo_struk":"linijsko nepravilno s odvojcima","visina1":313.05975341796875,"xcoord":486939.3637817977,"ycoord":5019960.488827132},"type":"Feature"}
 ,{"geometry":{"coordinates":[16.29741,45.325745],"type":"Point"},"id":"naselja_stanovnistvo.167","properties":{"code":1003,"fclass":"village","geostat__1":"141","id":167,"name":"Jabukovac","osm_id":"3390657096","population":141,"promet_dos":null,"smještaj":"udolinsko do brežuljkasto","stanovni_g":141,"tip":"selo","tipo_struk":"kombinirano - linijsko do raspršeno","visina1":180.40447998046875,"xcoord":484118.762053917,"ycoord":5020663.920263431},"type":"Feature"}
 ,{"geometry":{"coordinates":[16.306452,45.30295],"type":"Point"},"id":"naselja_stanovnistvo.168","properties":{"code":1003,"fclass":"village","geostat__1":"47","id":168,"name":"Tremušnjak","osm_id":"3390657097","population":47,"promet_dos":null,"smještaj":"brdsko brežuljkasti","stanovni_g":47,"tip":"selo","tipo_struk":"linijsko nepravilno s odvojcima","visina1":224.71836853027344,"xcoord":484821.5126219015,"ycoord":5018129.042305008},"type":"Feature"}
 ,{"geometry":{"coordinates":[16.326292,45.301391],"type":"Point"},"id":"naselja_stanovnistvo.169","properties":{"code":1003,"fclass":"village","geostat__1":"58","id":169,"name":"Begovići","osm_id":"3390657099","population":58,"promet_dos":null,"smještaj":"brdsko brežuljkasti","stanovni_g":58,"tip":"selo","tipo_struk":"linijsko pravilno","visina1":297.0068664550781,"xcoord":486377.02342804824,"ycoord":5017952.173626535},"type":"Feature"}
 ,{"geometry":{"coordinates":[16.362001,45.327547],"type":"Point"},"id":"naselja_stanovnistvo.170","properties":{"code":1003,"fclass":"village","geostat__1":"84","id":170,"name":"Jošavica","osm_id":"3390913649","population":0,"promet_dos":null,"smještaj":"brdsko brežuljkasti","stanovni_g":84,"tip":"selo","tipo_struk":"raštrkano razgranato","visina1":340.9420471191406,"xcoord":489182.49389367504,"ycoord":5020853.480416632},"type":"Feature"}
 ,{"geometry":{"coordinates":[16.359607,45.313394],"type":"Point"},"id":"naselja_stanovnistvo.171","properties":{"code":1003,"fclass":"village","geostat__1":"11","id":171,"name":"Donja Pastuša","osm_id":"3390913977","population":11,"promet_dos":null,"smještaj":"brdsko brežuljkasti","stanovni_g":11,"tip":"selo","tipo_struk":"linijsko nepravilno","visina1":291.3735656738281,"xcoord":488992.0993640248,"ycoord":5019280.947484471},"type":"Feature"}
 ,{"geometry":{"coordinates":[16.298865,45.37129],"type":"Point"},"id":"naselja_stanovnistvo.172","properties":{"code":1003,"fclass":"village","geostat__1":"27","id":172,"name":"Klinac","osm_id":"3392170982","population":27,"promet_dos":null,"smještaj":"brdsko brežuljkasti","stanovni_g":27,"tip":"selo","tipo_struk":"linijsko nepravilno s odvojcima","visina1":295.4505920410156,"xcoord":484245.5154498189,"ycoord":5025724.912638583},"type":"Feature"}
 ,{"geometry":{"coordinates":[16.294494,45.294181],"type":"Point"},"id":"naselja_stanovnistvo.173","properties":{"code":1003,"fclass":"village","geostat__1":"36","id":173,"name":"Mačkovo Selo","osm_id":"3393675188","population":36,"promet_dos":null,"smještaj":"brdsko brežuljkasti","stanovni_g":36,"tip":"selo","tipo_struk":"linijsko nepravilno raspršeno","visina1":241.67507934570313,"xcoord":483881.25337762706,"ycoord":5017156.851036128},"type":"Feature"}
 ,{"geometry":{"coordinates":[16.287316,45.277483],"type":"Point"},"id":"naselja_stanovnistvo.174","properties":{"code":1003,"fclass":"village","geostat__1":"43","id":174,"name":"Miočinovići","osm_id":"3393675297","population":43,"promet_dos":null,"smještaj":"nizinsko","stanovni_g":43,"tip":"selo","tipo_struk":"linijsko nepravilno","visina1":215.3153839111328,"xcoord":483313.38745415624,"ycoord":5015302.769675991},"type":"Feature"}
 ,{"geometry":{"coordinates":[16.265313,45.279545],"type":"Point"},"id":"naselja_stanovnistvo.175","properties":{"code":1003,"fclass":"village","geostat__1":"126","id":175,"name":"Veliki Gradac","osm_id":"3393688730","population":126,"promet_dos":null,"smještaj":null,"stanovni_g":126,"tip":"selo","tipo_struk":null,"visina1":263.3845520019531,"xcoord":481587.7306482415,"ycoord":5015536.633710381},"type":"Feature"}
 ,{"geometry":{"coordinates":[16.463926,45.338621],"type":"Point"},"id":"naselja_stanovnistvo.176","properties":{"code":1003,"fclass":"village","geostat__1":"20","id":176,"name":"Mala Gradusa","osm_id":"3395132383","population":20,"promet_dos":null,"smještaj":null,"stanovni_g":20,"tip":"selo","tipo_struk":null,"visina1":140.91566467285156,"xcoord":497172.7498664736,"ycoord":5022075.382781162},"type":"Feature"}
 ,{"geometry":{"coordinates":[16.455662,45.34488],"type":"Point"},"id":"naselja_stanovnistvo.177","properties":{"code":1003,"fclass":"village","geostat__1":"7","id":177,"name":"Kladari","osm_id":"3395132384","population":7,"promet_dos":null,"smještaj":null,"stanovni_g":7,"tip":"selo","tipo_struk":null,"visina1":143.08132934570313,"xcoord":496525.5037109686,"ycoord":5022771.263170898},"type":"Feature"}
 ,{"geometry":{"coordinates":[15.89252,45.40185],"type":"Point"},"id":"naselja_stanovnistvo.1554","properties":{"code":null,"fclass":null,"geostat__1":null,"id":1554,"name":"Kirete","osm_id":null,"population":null,"promet_dos":null,"smještaj":null,"stanovni_g":null,"tip":"zaselak","tipo_struk":null,"visina1":183.9226531982422,"xcoord":null,"ycoord":null},"type":"Feature"}
 ,{"geometry":{"coordinates":[16.530377,45.350867],"type":"Point"},"id":"naselja_stanovnistvo.178","properties":{"code":1003,"fclass":"village","geostat__1":"232","id":178,"name":"Četvrtkovac","osm_id":"3395132385","population":232,"promet_dos":null,"smještaj":null,"stanovni_g":232,"tip":"selo","tipo_struk":null,"visina1":112.45323181152344,"xcoord":502380.2291558827,"ycoord":5023436.064760503},"type":"Feature"}
 ,{"geometry":{"coordinates":[16.489632,45.351545],"type":"Point"},"id":"naselja_stanovnistvo.179","properties":{"code":1003,"fclass":"village","geostat__1":"39","id":179,"name":"Mala Paukova","osm_id":"3395132386","population":39,"promet_dos":null,"smještaj":null,"stanovni_g":39,"tip":"selo","tipo_struk":null,"visina1":166.654296875,"xcoord":499187.6194727206,"ycoord":5023511.001513192},"type":"Feature"}
 ,{"geometry":{"coordinates":[16.442616,45.338681],"type":"Point"},"id":"naselja_stanovnistvo.180","properties":{"code":1003,"fclass":"village","geostat__1":"33","id":180,"name":"Sjeverovac","osm_id":"3395132387","population":33,"promet_dos":null,"smještaj":null,"stanovni_g":33,"tip":"selo","tipo_struk":null,"visina1":142.5535430908203,"xcoord":495502.6533212741,"ycoord":5022083.063689556},"type":"Feature"}
 ,{"geometry":{"coordinates":[16.512217,45.36914],"type":"Point"},"id":"naselja_stanovnistvo.181","properties":{"code":1003,"fclass":"village","geostat__1":"183","id":181,"name":"Petrinjci","osm_id":"3395132388","population":183,"promet_dos":null,"smještaj":null,"stanovni_g":183,"tip":"selo","tipo_struk":null,"visina1":123.68599700927734,"xcoord":500956.96292102424,"ycoord":5025466.391596436},"type":"Feature"}
 ,{"geometry":{"coordinates":[16.472335,45.364105],"type":"Point"},"id":"naselja_stanovnistvo.182","properties":{"code":1003,"fclass":"village","geostat__1":"21","id":182,"name":"Vukoševac","osm_id":"3395132389","population":21,"promet_dos":null,"smještaj":null,"stanovni_g":21,"tip":"selo","tipo_struk":null,"visina1":175.1003875732422,"xcoord":497832.7785241164,"ycoord":5024907.140463421},"type":"Feature"}
 ,{"geometry":{"coordinates":[16.606011,45.365919],"type":"Point"},"id":"naselja_stanovnistvo.183","properties":{"code":1003,"fclass":"village","geostat__1":"65","id":183,"name":"Žreme","osm_id":"3396657458","population":65,"promet_dos":null,"smještaj":null,"stanovni_g":65,"tip":"selo","tipo_struk":null,"visina1":97.96923065185547,"xcoord":508304.4425984083,"ycoord":5025113.843221221},"type":"Feature"}
 ,{"geometry":{"coordinates":[16.586629,45.36503],"type":"Point"},"id":"naselja_stanovnistvo.184","properties":{"code":1003,"fclass":"village","geostat__1":"120","id":184,"name":"Krivaj Sunjski","osm_id":"3396657789","population":120,"promet_dos":null,"smještaj":null,"stanovni_g":120,"tip":"selo","tipo_struk":null,"visina1":95.3778305053711,"xcoord":506786.25774032937,"ycoord":5025013.167610198},"type":"Feature"}
 ,{"geometry":{"coordinates":[16.198816,45.248221],"type":"Point"},"id":"naselja_stanovnistvo.185","properties":{"code":1003,"fclass":"village","geostat__1":"46","id":185,"name":"Kozaperovica","osm_id":"3529903961","population":46,"promet_dos":null,"smještaj":null,"stanovni_g":46,"tip":"selo","tipo_struk":null,"visina1":178.59408569335938,"xcoord":476357.71881769615,"ycoord":5012073.097301979},"type":"Feature"}
 ,{"geometry":{"coordinates":[16.174317,45.262904],"type":"Point"},"id":"naselja_stanovnistvo.186","properties":{"code":1003,"fclass":"village","geostat__1":"149","id":186,"name":"Dragotina","osm_id":"3529903978","population":149,"promet_dos":null,"smještaj":null,"stanovni_g":149,"tip":"selo","tipo_struk":null,"visina1":149.4407196044922,"xcoord":474441.21253753867,"ycoord":5013712.259607143},"type":"Feature"}
 ,{"geometry":{"coordinates":[16.2201,45.262692],"type":"Point"},"id":"naselja_stanovnistvo.187","properties":{"code":1003,"fclass":"village","geostat__1":"143","id":187,"name":"Mali Gradac","osm_id":"3529904154","population":143,"promet_dos":null,"smještaj":null,"stanovni_g":143,"tip":"selo","tipo_struk":null,"visina1":217.43820190429688,"xcoord":478034.0767980664,"ycoord":5013675.135261521},"type":"Feature"}
 ,{"geometry":{"coordinates":[16.173223,45.248289],"type":"Point"},"id":"naselja_stanovnistvo.188","properties":{"code":1003,"fclass":"village","geostat__1":null,"id":188,"name":"Donji Klasnići","osm_id":"3529906857","population":0,"promet_dos":null,"smještaj":null,"stanovni_g":90,"tip":"selo","tipo_struk":null,"visina1":208.82891845703125,"xcoord":474348.7554388616,"ycoord":5012088.483412404},"type":"Feature"}
 ,{"geometry":{"coordinates":[16.140037,45.282704],"type":"Point"},"id":"naselja_stanovnistvo.189","properties":{"code":1003,"fclass":"village","geostat__1":"168","id":189,"name":"Maja","osm_id":"3529907278","population":168,"promet_dos":null,"smještaj":null,"stanovni_g":168,"tip":"selo","tipo_struk":null,"visina1":130.65162658691406,"xcoord":471760.83822026884,"ycoord":5015923.921456921},"type":"Feature"}
 ,{"geometry":{"coordinates":[16.137468,45.239477],"type":"Point"},"id":"naselja_stanovnistvo.190","properties":{"code":1003,"fclass":"village","geostat__1":null,"id":190,"name":"Gornji Klasnići","osm_id":"3529910132","population":0,"promet_dos":null,"smještaj":null,"stanovni_g":41,"tip":"selo","tipo_struk":null,"visina1":235.34715270996094,"xcoord":471537.7095462746,"ycoord":5011121.224969667},"type":"Feature"}
 ,{"geometry":{"coordinates":[16.135805,45.278076],"type":"Point"},"id":"naselja_stanovnistvo.191","properties":{"code":1003,"fclass":"village","geostat__1":"44","id":191,"name":"Svračica","osm_id":"3529911239","population":44,"promet_dos":null,"smještaj":null,"stanovni_g":44,"tip":"selo","tipo_struk":null,"visina1":138.10804748535156,"xcoord":471426.47468404286,"ycoord":5015411.154147965},"type":"Feature"}
 ,{"geometry":{"coordinates":[16.125232,45.291539],"type":"Point"},"id":"naselja_stanovnistvo.192","properties":{"code":1003,"fclass":"village","geostat__1":"102","id":192,"name":"Dolnjaki","osm_id":"3529919232","population":102,"promet_dos":null,"smještaj":null,"stanovni_g":102,"tip":"selo","tipo_struk":null,"visina1":129.83950805664063,"xcoord":470603.8830708378,"ycoord":5016911.06954836},"type":"Feature"}
 ,{"geometry":{"coordinates":[16.328393,45.357174],"type":"Point"},"id":"naselja_stanovnistvo.193","properties":{"code":1003,"fclass":"village","geostat__1":"28","id":193,"name":"Deanovići","osm_id":"3534991390","population":28,"promet_dos":null,"smještaj":"brdsko brežuljkasti","stanovni_g":28,"tip":"selo","tipo_struk":"linijsko nepravilno","visina1":325.5513610839844,"xcoord":486555.00524777314,"ycoord":5024150.89001767},"type":"Feature"}
 ,{"geometry":{"coordinates":[16.169477,45.27548],"type":"Point"},"id":"naselja_stanovnistvo.194","properties":{"code":1004,"fclass":"hamlet","geostat__1":null,"id":194,"name":"Krojačići","osm_id":"3546952860","population":0,"promet_dos":null,"smještaj":null,"stanovni_g":0,"tip":"zaselak","tipo_struk":null,"visina1":161.11624145507813,"xcoord":474067.0535049004,"ycoord":5015111.302134509},"type":"Feature"}
 ,{"geometry":{"coordinates":[16.119312999999998,45.30726],"type":"Point"},"id":"naselja_stanovnistvo.195","properties":{"code":1004,"fclass":"hamlet","geostat__1":null,"id":195,"name":"Kralji","osm_id":"3554298044","population":0,"promet_dos":null,"smještaj":null,"stanovni_g":0,"tip":"zaselak","tipo_struk":null,"visina1":119.69986724853516,"xcoord":470147.85085062345,"ycoord":5018660.264496188},"type":"Feature"}
 ,{"geometry":{"coordinates":[16.130168,45.313362],"type":"Point"},"id":"naselja_stanovnistvo.196","properties":{"code":1003,"fclass":"village","geostat__1":"46","id":196,"name":"Roviška","osm_id":"3554302498","population":46,"promet_dos":null,"smještaj":null,"stanovni_g":46,"tip":"selo","tipo_struk":null,"visina1":140.01039123535156,"xcoord":471002.24315703916,"ycoord":5019334.329385523},"type":"Feature"}
 ,{"geometry":{"coordinates":[16.144933,45.304141],"type":"Point"},"id":"naselja_stanovnistvo.197","properties":{"code":1003,"fclass":"village","geostat__1":"129","id":197,"name":"Ravno Rašće","osm_id":"3554330887","population":129,"promet_dos":null,"smještaj":null,"stanovni_g":129,"tip":"selo","tipo_struk":null,"visina1":162.6031036376953,"xcoord":472155.35243402893,"ycoord":5018304.412681447},"type":"Feature"}
 ,{"geometry":{"coordinates":[16.169233,45.302744],"type":"Point"},"id":"naselja_stanovnistvo.198","properties":{"code":1003,"fclass":"village","geostat__1":"36","id":198,"name":"Majski Trtnik","osm_id":"3554330930","population":36,"promet_dos":null,"smještaj":null,"stanovni_g":36,"tip":"selo","tipo_struk":null,"visina1":168.9686737060547,"xcoord":474060.3783055985,"ycoord":5018141.061183732},"type":"Feature"}
 ,{"geometry":{"coordinates":[16.123304,45.34803],"type":"Point"},"id":"naselja_stanovnistvo.199","properties":{"code":1003,"fclass":"village","geostat__1":"196","id":199,"name":"Majske Poljane","osm_id":"3612679977","population":196,"promet_dos":null,"smještaj":null,"stanovni_g":196,"tip":"selo","tipo_struk":null,"visina1":126.29214477539063,"xcoord":470482.02495892433,"ycoord":5023189.376738343},"type":"Feature"}
 ,{"geometry":{"coordinates":[16.053055,45.300591],"type":"Point"},"id":"naselja_stanovnistvo.200","properties":{"code":1004,"fclass":"hamlet","geostat__1":null,"id":200,"name":"Vranješi","osm_id":"3614871615","population":0,"promet_dos":null,"smještaj":null,"stanovni_g":0,"tip":"zaselak","tipo_struk":null,"visina1":203.5415496826172,"xcoord":464948.0492970198,"ycoord":5017945.805074023},"type":"Feature"}
 ,{"geometry":{"coordinates":[16.06493,45.309058],"type":"Point"},"id":"naselja_stanovnistvo.201","properties":{"code":1003,"fclass":"village","geostat__1":"55","id":201,"name":"Gornje Selište","osm_id":"3614871616","population":55,"promet_dos":null,"smještaj":null,"stanovni_g":55,"tip":"selo","tipo_struk":null,"visina1":150.53530883789063,"xcoord":465884.44789843576,"ycoord":5018881.574028924},"type":"Feature"}
 ,{"geometry":{"coordinates":[16.033197,45.310884],"type":"Point"},"id":"naselja_stanovnistvo.202","properties":{"code":1003,"fclass":"village","geostat__1":"41","id":202,"name":"Skela","osm_id":"3614871617","population":41,"promet_dos":null,"smještaj":null,"stanovni_g":41,"tip":"selo","tipo_struk":null,"visina1":126.64827728271484,"xcoord":463397.33762079827,"ycoord":5019098.491637466},"type":"Feature"}
 ,{"geometry":{"coordinates":[16.041736,45.295512],"type":"Point"},"id":"naselja_stanovnistvo.203","properties":{"code":1003,"fclass":"village","geostat__1":"69","id":203,"name":"Balinac","osm_id":"3614871619","population":69,"promet_dos":null,"smještaj":null,"stanovni_g":69,"tip":"selo","tipo_struk":null,"visina1":220.68344116210938,"xcoord":464057.1410538142,"ycoord":5017386.378313143},"type":"Feature"}
 ,{"geometry":{"coordinates":[15.980778,45.428625],"type":"Point"},"id":"naselja_stanovnistvo.204","properties":{"code":1003,"fclass":"village","geostat__1":"54","id":204,"name":"Donja Bučica","osm_id":"3648809324","population":54,"promet_dos":null,"smještaj":null,"stanovni_g":54,"tip":"selo","tipo_struk":null,"visina1":183.14207458496094,"xcoord":459371.465900216,"ycoord":5032207.905597298},"type":"Feature"}
 ,{"geometry":{"coordinates":[15.941217,45.42154],"type":"Point"},"id":"naselja_stanovnistvo.205","properties":{"code":1003,"fclass":"village","geostat__1":"38","id":205,"name":"Golinja","osm_id":"3648810334","population":38,"promet_dos":null,"smještaj":null,"stanovni_g":38,"tip":"selo","tipo_struk":null,"visina1":202.32449340820313,"xcoord":456270.4001313155,"ycoord":5031441.358920158},"type":"Feature"}
 ,{"geometry":{"coordinates":[15.931489,45.404245],"type":"Point"},"id":"naselja_stanovnistvo.206","properties":{"code":1003,"fclass":"village","geostat__1":"91","id":206,"name":"Bović","osm_id":"3655335926","population":91,"promet_dos":null,"smještaj":null,"stanovni_g":91,"tip":"selo","tipo_struk":null,"visina1":205.48692321777344,"xcoord":455495.4625410658,"ycoord":5029524.67935337},"type":"Feature"}
 ,{"geometry":{"coordinates":[16.158494,45.3465],"type":"Point"},"id":"naselja_stanovnistvo.207","properties":{"code":1003,"fclass":"village","geostat__1":"13","id":207,"name":"Brnjeuška","osm_id":"3702862490","population":13,"promet_dos":null,"smještaj":null,"stanovni_g":13,"tip":"selo","tipo_struk":null,"visina1":121.90327453613281,"xcoord":473238.77598352666,"ycoord":5023007.123745705},"type":"Feature"}
 ,{"geometry":{"coordinates":[16.206968,45.318237],"type":"Point"},"id":"naselja_stanovnistvo.208","properties":{"code":1003,"fclass":"village","geostat__1":"73","id":208,"name":"Vlahović","osm_id":"3725767922","population":73,"promet_dos":null,"smještaj":null,"stanovni_g":73,"tip":"selo","tipo_struk":null,"visina1":182.1723175048828,"xcoord":477025.909737292,"ycoord":5019851.3629625775},"type":"Feature"}
 ,{"geometry":{"coordinates":[16.237083,45.330117],"type":"Point"},"id":"naselja_stanovnistvo.209","properties":{"code":1003,"fclass":"village","geostat__1":"200","id":209,"name":"Grabovac Banski","osm_id":"3725769025","population":200,"promet_dos":null,"smještaj":"udolinsko","stanovni_g":200,"tip":"selo","tipo_struk":"linijsko nepravilno s odvojcima","visina1":214.73912048339844,"xcoord":479391.29605969583,"ycoord":5021163.373448416},"type":"Feature"}
 ,{"geometry":{"coordinates":[16.234752,45.293945],"type":"Point"},"id":"naselja_stanovnistvo.210","properties":{"code":1003,"fclass":"village","geostat__1":"71","id":210,"name":"Martinovići","osm_id":"3725769053","population":71,"promet_dos":null,"smještaj":null,"stanovni_g":71,"tip":"selo","tipo_struk":null,"visina1":208.66851806640625,"xcoord":479195.35102642316,"ycoord":5017144.362221622},"type":"Feature"}
 ,{"geometry":{"coordinates":[16.113576,45.151796],"type":"Point"},"id":"naselja_stanovnistvo.211","properties":{"code":1003,"fclass":"village","geostat__1":"5","id":211,"name":"Ostojići","osm_id":"3727228035","population":5,"promet_dos":null,"smještaj":null,"stanovni_g":5,"tip":"selo","tipo_struk":null,"visina1":356.4981689453125,"xcoord":469615.2716890696,"ycoord":5001386.3920852095},"type":"Feature"}
 ,{"geometry":{"coordinates":[16.070099,45.281554],"type":"Point"},"id":"naselja_stanovnistvo.212","properties":{"code":1003,"fclass":"village","geostat__1":"32","id":212,"name":"Hajtić","osm_id":"3728714667","population":32,"promet_dos":null,"smještaj":null,"stanovni_g":32,"tip":"selo","tipo_struk":null,"visina1":202.86351013183594,"xcoord":466273.4703087063,"ycoord":5015823.056039083},"type":"Feature"}
 ,{"geometry":{"coordinates":[16.052483,45.275566],"type":"Point"},"id":"naselja_stanovnistvo.213","properties":{"code":1003,"fclass":"village","geostat__1":"26","id":213,"name":"Šaševa","osm_id":"3728714668","population":26,"promet_dos":null,"smještaj":null,"stanovni_g":26,"tip":"selo","tipo_struk":null,"visina1":208.3638916015625,"xcoord":464887.7927969434,"ycoord":5015165.130087658},"type":"Feature"}
 ,{"geometry":{"coordinates":[16.078941,45.295569],"type":"Point"},"id":"naselja_stanovnistvo.214","properties":{"code":1003,"fclass":"village","geostat__1":"28","id":214,"name":"Šibine","osm_id":"3728714669","population":28,"promet_dos":null,"smještaj":null,"stanovni_g":28,"tip":"selo","tipo_struk":null,"visina1":162.07432556152344,"xcoord":466975.24394566414,"ycoord":5017376.786147442},"type":"Feature"}
 ,{"geometry":{"coordinates":[16.108188,45.264905],"type":"Point"},"id":"naselja_stanovnistvo.215","properties":{"code":1003,"fclass":"village","geostat__1":"67","id":215,"name":"Buzeta","osm_id":"3728730001","population":67,"promet_dos":null,"smještaj":null,"stanovni_g":67,"tip":"selo","tipo_struk":null,"visina1":153.9999542236328,"xcoord":469252.6342463074,"ycoord":5013957.704642463},"type":"Feature"}
 ,{"geometry":{"coordinates":[16.157557,45.263192],"type":"Point"},"id":"naselja_stanovnistvo.216","properties":{"code":1003,"fclass":"village","geostat__1":"86","id":216,"name":"Dabrina","osm_id":"3728813198","population":86,"promet_dos":null,"smještaj":null,"stanovni_g":86,"tip":"selo","tipo_struk":null,"visina1":154.242919921875,"xcoord":473126.0801227616,"ycoord":5013749.711283712},"type":"Feature"}
 ,{"geometry":{"coordinates":[16.042373,45.190877],"type":"Point"},"id":"naselja_stanovnistvo.217","properties":{"code":1003,"fclass":"village","geostat__1":"28","id":217,"name":"Bojna","osm_id":"3728996154","population":28,"promet_dos":null,"smještaj":null,"stanovni_g":28,"tip":"selo","tipo_struk":null,"visina1":223.8346405029297,"xcoord":464041.19283341715,"ycoord":5005758.499970773},"type":"Feature"}
 ,{"geometry":{"coordinates":[16.044471,45.222615],"type":"Point"},"id":"naselja_stanovnistvo.218","properties":{"code":1003,"fclass":"village","geostat__1":"22","id":218,"name":"Veliki Obljaj","osm_id":"3729087919","population":22,"promet_dos":null,"smještaj":null,"stanovni_g":22,"tip":"selo","tipo_struk":null,"visina1":311.8007507324219,"xcoord":464225.9459138907,"ycoord":5009284.39873599},"type":"Feature"}
 ,{"geometry":{"coordinates":[16.12707,45.192216],"type":"Point"},"id":"naselja_stanovnistvo.219","properties":{"code":1003,"fclass":"village","geostat__1":"24","id":219,"name":"Brezovo Polje","osm_id":"3735991926","population":24,"promet_dos":null,"smještaj":null,"stanovni_g":24,"tip":"selo","tipo_struk":null,"visina1":250.81277465820313,"xcoord":470697.0623456035,"ycoord":5005873.084182449},"type":"Feature"}
 ,{"geometry":{"coordinates":[16.109657,45.196322],"type":"Point"},"id":"naselja_stanovnistvo.220","properties":{"code":1003,"fclass":"village","geostat__1":"4","id":220,"name":"Brubno","osm_id":"3735991927","population":4,"promet_dos":null,"smještaj":null,"stanovni_g":4,"tip":"selo","tipo_struk":null,"visina1":380.837646484375,"xcoord":469331.0508189583,"ycoord":5006335.771451064},"type":"Feature"}
 ,{"geometry":{"coordinates":[16.145459,45.188541],"type":"Point"},"id":"naselja_stanovnistvo.221","properties":{"code":1004,"fclass":"hamlet","geostat__1":null,"id":221,"name":"Danguba","osm_id":"3735991928","population":0,"promet_dos":null,"smještaj":null,"stanovni_g":null,"tip":"zaselak","tipo_struk":null,"visina1":279.030029296875,"xcoord":472140.19873685506,"ycoord":5005458.13847179},"type":"Feature"}
 ,{"geometry":{"coordinates":[16.155458,45.165323],"type":"Point"},"id":"naselja_stanovnistvo.222","properties":{"code":1003,"fclass":"village","geostat__1":"2","id":222,"name":"Čavlovica","osm_id":"3735991931","population":2,"promet_dos":null,"smještaj":null,"stanovni_g":2,"tip":"selo","tipo_struk":null,"visina1":453.9713439941406,"xcoord":472914.93877617974,"ycoord":5002874.713661685},"type":"Feature"}
 ,{"geometry":{"coordinates":[16.031432,45.240769],"type":"Point"},"id":"naselja_stanovnistvo.223","properties":{"code":1003,"fclass":"village","geostat__1":"34","id":223,"name":"Mali Obljaj","osm_id":"3742499171","population":34,"promet_dos":null,"smještaj":null,"stanovni_g":34,"tip":"selo","tipo_struk":null,"visina1":290.39691162109375,"xcoord":463213.6434827514,"ycoord":5011307.6714929575},"type":"Feature"}
 ,{"geometry":{"coordinates":[15.902945,45.407884],"type":"Point"},"id":"naselja_stanovnistvo.1555","properties":{"code":null,"fclass":null,"geostat__1":null,"id":1555,"name":"Bijelići","osm_id":null,"population":null,"promet_dos":null,"smještaj":null,"stanovni_g":null,"tip":"zaselak","tipo_struk":null,"visina1":172.48446655273438,"xcoord":null,"ycoord":null},"type":"Feature"}
 ,{"geometry":{"coordinates":[15.855495,45.29529],"type":"Point"},"id":"naselja_stanovnistvo.224","properties":{"code":1003,"fclass":"village","geostat__1":"43","id":224,"name":"Malička","osm_id":"3828500140","population":43,"promet_dos":null,"smještaj":null,"stanovni_g":43,"tip":"selo","tipo_struk":null,"visina1":166.32774353027344,"xcoord":449449.6079129603,"ycoord":5017461.589791624},"type":"Feature"}
 ,{"geometry":{"coordinates":[15.876342,45.28427],"type":"Point"},"id":"naselja_stanovnistvo.225","properties":{"code":1003,"fclass":"village","geostat__1":"176","id":225,"name":"Perna","osm_id":"3828500141","population":176,"promet_dos":null,"smještaj":null,"stanovni_g":176,"tip":"selo","tipo_struk":null,"visina1":152.68226623535156,"xcoord":451075.1704978765,"ycoord":5016224.150488679},"type":"Feature"}
 ,{"geometry":{"coordinates":[15.85021,45.271098],"type":"Point"},"id":"naselja_stanovnistvo.226","properties":{"code":1004,"fclass":"hamlet","geostat__1":null,"id":226,"name":"Mala Pecka","osm_id":"3828505757","population":0,"promet_dos":null,"smještaj":null,"stanovni_g":null,"tip":"zaselak","tipo_struk":null,"visina1":180.1676483154297,"xcoord":449013.41640575964,"ycoord":5014776.576301629},"type":"Feature"}
 ,{"geometry":{"coordinates":[15.868605,45.262989],"type":"Point"},"id":"naselja_stanovnistvo.227","properties":{"code":1003,"fclass":"village","geostat__1":"27","id":227,"name":"Pecka","osm_id":"3828505758","population":27,"promet_dos":null,"smještaj":null,"stanovni_g":27,"tip":"selo","tipo_struk":null,"visina1":166.58921813964844,"xcoord":450449.7403979058,"ycoord":5013863.980466306},"type":"Feature"}
 ,{"geometry":{"coordinates":[15.849341,45.255008],"type":"Point"},"id":"naselja_stanovnistvo.228","properties":{"code":1004,"fclass":"hamlet","geostat__1":null,"id":228,"name":"Velika Pecka","osm_id":"3828505759","population":0,"promet_dos":null,"smještaj":null,"stanovni_g":null,"tip":"zaselak","tipo_struk":null,"visina1":181.73785400390625,"xcoord":448930.7658523244,"ycoord":5012989.113079928},"type":"Feature"}
 ,{"geometry":{"coordinates":[15.876589,45.23027],"type":"Point"},"id":"naselja_stanovnistvo.229","properties":{"code":1003,"fclass":"village","geostat__1":"153","id":229,"name":"Crni Potok","osm_id":"3842212117","population":153,"promet_dos":null,"smještaj":null,"stanovni_g":153,"tip":"selo","tipo_struk":null,"visina1":166.70230102539063,"xcoord":451048.20164539927,"ycoord":5010223.237891869},"type":"Feature"}
 ,{"geometry":{"coordinates":[16.28681,45.089884],"type":"Point"},"id":"naselja_stanovnistvo.230","properties":{"code":1004,"fclass":"hamlet","geostat__1":null,"id":230,"name":"Donja Ljubina","osm_id":"4013997163","population":0,"promet_dos":null,"smještaj":null,"stanovni_g":null,"tip":"zaselak","tipo_struk":null,"visina1":144.0142364501953,"xcoord":483218.60029690526,"ycoord":4994456.0542958835},"type":"Feature"}
 ,{"geometry":{"coordinates":[16.308794,45.088454],"type":"Point"},"id":"naselja_stanovnistvo.231","properties":{"code":1003,"fclass":"village","geostat__1":"118","id":231,"name":"Grmušani","osm_id":"4013997164","population":118,"promet_dos":null,"smještaj":null,"stanovni_g":118,"tip":"selo","tipo_struk":null,"visina1":146.66860961914063,"xcoord":484948.7237879159,"ycoord":4994292.757512445},"type":"Feature"}
 ,{"geometry":{"coordinates":[16.27168,45.095127],"type":"Point"},"id":"naselja_stanovnistvo.232","properties":{"code":1003,"fclass":"village","geostat__1":"35","id":232,"name":"Kosna","osm_id":"4013997165","population":35,"promet_dos":null,"smještaj":null,"stanovni_g":35,"tip":"selo","tipo_struk":null,"visina1":162.3123321533203,"xcoord":482029.29364115815,"ycoord":4995041.952492951},"type":"Feature"}
 ,{"geometry":{"coordinates":[16.261201,45.070506],"type":"Point"},"id":"naselja_stanovnistvo.233","properties":{"code":1003,"fclass":"village","geostat__1":"100","id":233,"name":"Ljubina","osm_id":"4013997166","population":100,"promet_dos":null,"smještaj":null,"stanovni_g":100,"tip":"selo","tipo_struk":null,"visina1":172.0885772705078,"xcoord":481196.40990444017,"ycoord":4992308.336662689},"type":"Feature"}
 ,{"geometry":{"coordinates":[16.232559,45.049177],"type":"Point"},"id":"naselja_stanovnistvo.234","properties":{"code":1003,"fclass":"village","geostat__1":"23","id":234,"name":"Sočanica","osm_id":"4013997168","population":23,"promet_dos":null,"smještaj":null,"stanovni_g":23,"tip":"selo","tipo_struk":null,"visina1":337.4692077636719,"xcoord":478933.2449374699,"ycoord":4989945.306447285},"type":"Feature"}
 ,{"geometry":{"coordinates":[16.287101,45.105414],"type":"Point"},"id":"naselja_stanovnistvo.235","properties":{"code":1003,"fclass":"village","geostat__1":"100","id":235,"name":"Trgovi","osm_id":"4013997169","population":100,"promet_dos":null,"smještaj":null,"stanovni_g":100,"tip":"selo","tipo_struk":null,"visina1":152.1490478515625,"xcoord":483246.0800535401,"ycoord":4996181.727419743},"type":"Feature"}
 ,{"geometry":{"coordinates":[16.215638,45.110519],"type":"Point"},"id":"naselja_stanovnistvo.236","properties":{"code":1003,"fclass":"village","geostat__1":"11","id":236,"name":"Majdan","osm_id":"4014027155","population":11,"promet_dos":null,"smještaj":null,"stanovni_g":11,"tip":"selo","tipo_struk":null,"visina1":211.8554229736328,"xcoord":477624.3629634683,"ycoord":4996766.274745029},"type":"Feature"}
 ,{"geometry":{"coordinates":[16.172317,45.137093],"type":"Point"},